[
    {
        "name": "无锡新安水上服务区",
        "location": {
            "lon": 120.407792,
            "lat": 31.473917
        },
        "isNew": 0
    },
    {
        "name": "无锡宜兴水上服务区",
        "location": {
            "lon": 119.79034,
            "lat": 31.39237
        },
        "isNew": 0
    },
    {
        "name": "京昆高速秦岭服务区（昆明方向）",
        "location": {
            "lon": 108.490462,
            "lat": 33.775045
        },
        "isNew": 0
    },
    {
        "name": "包茂高速耀州服务区（包头方向）",
        "location": {
            "lon": 108.956814,
            "lat": 35.043188
        },
        "isNew": 0
    },
    {
        "name": "长治绕城高速壶关服务区(潞城方向)",
        "location": {
            "lon": 113.199299,
            "lat": 36.066114
        },
        "isNew": 1
    },
    {
        "name": "长治绕城高速壶关服务区(上党方向)",
        "location": {
            "lon": 113.196923,
            "lat": 36.067168
        },
        "isNew": 1
    },
    {
        "name": "东昌高速临川服务区（昌傅方向）",
        "location": {
            "lon": 116.298895,
            "lat": 28.052822
        },
        "isNew": 0
    },
    {
        "name": "孙右高速官堡服务区（右玉方向）",
        "location": {
            "lon": 113.522033,
            "lat": 40.026048
        },
        "isNew": 1
    },
    {
        "name": "大广高速燕夏服务区（北京方向）",
        "location": {
            "lon": 114.909715,
            "lat": 29.576608
        },
        "isNew": 0
    },
    {
        "name": "京杭运河镇江水上服务区",
        "location": {
            "lon": 119.565,
            "lat": 32.127213
        },
        "isNew": 0
    },
    {
        "name": "青兰高速诸城服务区（青岛方向）充电站",
        "location": {
            "lon": 119.345843,
            "lat": 36.076852
        },
        "isNew": 0
    },
    {
        "name": "沿海高速抚宁服务区充电站（天津方向）",
        "location": {
            "lon": 119.32685,
            "lat": 39.825725
        },
        "isNew": 0
    },
    {
        "name": "沿海高速唐海服务区充电站（秦皇岛方向）",
        "location": {
            "lon": 118.302834,
            "lat": 39.318188
        },
        "isNew": 0
    },
    {
        "name": "沿海高速乐亭服务区充电站（天津方向）",
        "location": {
            "lon": 118.742859,
            "lat": 39.331923
        },
        "isNew": 0
    },
    {
        "name": "海滨高速轻纺服务区充电站（秦皇岛方向）",
        "location": {
            "lon": 117.60702,
            "lat": 38.823595
        },
        "isNew": 0
    },
    {
        "name": "西柏坡高速鹿泉服务区充电站（西柏坡方向）",
        "location": {
            "lon": 114.265714,
            "lat": 38.179481
        },
        "isNew": 0
    },
    {
        "name": "台金高速仙居服务区充电站（台州方向）",
        "location": {
            "lon": 120.566033,
            "lat": 28.73903
        },
        "isNew": 0
    },
    {
        "name": "陕西省西安市曲江服务区（北区）",
        "location": {
            "lon": 108.9781,
            "lat": 34.1881
        },
        "isNew": 0
    },
    {
        "name": "大呼高速右玉服务区充电站（呼市方向）",
        "location": {
            "lon": 112.389011,
            "lat": 40.090679
        },
        "isNew": 1
    },
    {
        "name": "台金高速永康服务区充电站（台州方向）",
        "location": {
            "lon": 120.170588,
            "lat": 28.789287
        },
        "isNew": 0
    },
    {
        "name": "京沪高速青县服务区充电站（北京方向）",
        "location": {
            "lon": 116.857392,
            "lat": 38.639944
        },
        "isNew": 0
    },
    {
        "name": "沿海高速唐海服务区充电站（天津方向）",
        "location": {
            "lon": 118.300516,
            "lat": 39.319694
        },
        "isNew": 0
    },
    {
        "name": "重庆巴南木洞服务区充电站",
        "location": {
            "lon": 106.88364,
            "lat": 29.58866
        },
        "isNew": 0
    },
    {
        "name": "台金高速临海服务区充电站（金华方向）",
        "location": {
            "lon": 120.985607,
            "lat": 28.87163
        },
        "isNew": 0
    },
    {
        "name": "德商高速鄄城服务区（商丘方向）充电站",
        "location": {
            "lon": 115.59265,
            "lat": 35.58078
        },
        "isNew": 1
    },
    {
        "name": "京沪高速莱芜服务区（北京方向）充电站",
        "location": {
            "lon": 117.675095,
            "lat": 36.285608
        },
        "isNew": 0
    },
    {
        "name": "京沪高速阳澄湖服务区充电站（北京方向）",
        "location": {
            "lon": 120.76685,
            "lat": 31.36981
        },
        "isNew": 0
    },
    {
        "name": "盐靖高速泰州溱湖服务区（盐城方向）",
        "location": {
            "lon": 120.081592,
            "lat": 32.672251
        },
        "isNew": 0
    },
    {
        "name": "东昌高速临川服务区（东乡方向）",
        "location": {
            "lon": 116.297929,
            "lat": 28.050088
        },
        "isNew": 0
    },
    {
        "name": "厦蓉高速金山服务区（成都方向）",
        "location": {
            "lon": 117.314207,
            "lat": 24.777548
        },
        "isNew": 0
    },
    {
        "name": "商洛柞水西服务区充电站",
        "location": {
            "lon": 109.162726,
            "lat": 33.630052
        },
        "isNew": 0
    },
    {
        "name": "京港澳高速咸宁服务区（北京方向）",
        "location": {
            "lon": 114.285611,
            "lat": 29.986938
        },
        "isNew": 0
    },
    {
        "name": "大广高速饶阳服务区充电站（大庆方向）",
        "location": {
            "lon": 115.644648,
            "lat": 38.172074
        },
        "isNew": 0
    },
    {
        "name": "大广高速上高服务区充电站（大庆方向）",
        "location": {
            "lon": 114.841253,
            "lat": 28.097054
        },
        "isNew": 0
    },
    {
        "name": "廊涿高速廊坊服务区充电站（廊坊方向）",
        "location": {
            "lon": 116.480328,
            "lat": 39.475443
        },
        "isNew": 0
    },
    {
        "name": "兰海高速钱塘服务区充电站（兰州方向）",
        "location": {
            "lon": 106.305715,
            "lat": 30.19543
        },
        "isNew": 0
    },
    {
        "name": "京港澳高速巴陵服务区充电站（港澳方向）",
        "location": {
            "lon": 113.269091,
            "lat": 29.068772
        },
        "isNew": 0
    },
    {
        "name": "宁芜高速太白服务区充电站（芜湖方向）",
        "location": {
            "lon": 118.523889,
            "lat": 31.488813
        },
        "isNew": 0
    },
    {
        "name": "京沪高速范水服务区充电站（上海方向）",
        "location": {
            "lon": 119.439851,
            "lat": 33.093757
        },
        "isNew": 0
    },
    {
        "name": "二广高速荆门服务区快充站（广州方向）",
        "location": {
            "lon": 112.272543,
            "lat": 30.964198
        },
        "isNew": 0
    },
    {
        "name": "京昆高速涞水服务区充电站（昆明方向）",
        "location": {
            "lon": 115.670669,
            "lat": 39.402831
        },
        "isNew": 0
    },
    {
        "name": "永武高速西海服务区充电站（双向共用）",
        "location": {
            "lon": 115.363632,
            "lat": 29.323832
        },
        "isNew": 0
    },
    {
        "name": "济广高速潜山服务区充电站（广州方向）",
        "location": {
            "lon": 116.509077,
            "lat": 30.623793
        },
        "isNew": 0
    },
    {
        "name": "塘承高速宁河服务区充电站（塘沽方向）",
        "location": {
            "lon": 117.601845,
            "lat": 39.450175
        },
        "isNew": 0
    },
    {
        "name": "大广高速信丰服务区充电站（广州方向）",
        "location": {
            "lon": 114.882813,
            "lat": 25.057011
        },
        "isNew": 0
    },
    {
        "name": "京港澳高速安阳服务区充电站（港澳方向）",
        "location": {
            "lon": 114.419025,
            "lat": 35.998866
        },
        "isNew": 0
    },
    {
        "name": "京港澳高速沙河服务区充电站（港澳方向）",
        "location": {
            "lon": 114.551809,
            "lat": 36.863751
        },
        "isNew": 0
    },
    {
        "name": "沪昆高速新余服务区充电站（上海方向）",
        "location": {
            "lon": 115.015598,
            "lat": 27.86589
        },
        "isNew": 0
    },
    {
        "name": "廊涿高速涿州服务区充电站（涿州方向）",
        "location": {
            "lon": 115.856721,
            "lat": 39.394965
        },
        "isNew": 0
    },
    {
        "name": "承秦高速青龙服务区充电站（秦皇岛方向）",
        "location": {
            "lon": 118.867526,
            "lat": 40.410405
        },
        "isNew": 0
    },
    {
        "name": "京台高速江山服务区充电站（北京方向）",
        "location": {
            "lon": 118.678212,
            "lat": 28.808366
        },
        "isNew": 0
    },
    {
        "name": "京昆高速涞水服务区充电站（北京方向）",
        "location": {
            "lon": 115.672091,
            "lat": 39.401651
        },
        "isNew": 0
    },
    {
        "name": "青兰高速东阳关服务区充电站（青岛方向）",
        "location": {
            "lon": 113.471194,
            "lat": 36.535194
        },
        "isNew": 0
    },
    {
        "name": "石黄高速沧州服务区充电站（黄骅方向）",
        "location": {
            "lon": 116.912154,
            "lat": 38.233827
        },
        "isNew": 0
    },
    {
        "name": "青银高速宁晋服务区充电站（银川方向）",
        "location": {
            "lon": 114.943874,
            "lat": 37.666518
        },
        "isNew": 0
    },
    {
        "name": "济祁高速石弓服务区快充站（祁门方向）",
        "location": {
            "lon": 116.400613,
            "lat": 33.689081
        },
        "isNew": 0
    },
    {
        "name": "密涿高速大厂服务区充电站（涿州方向）",
        "location": {
            "lon": 117.009329,
            "lat": 39.869796
        },
        "isNew": 0
    },
    {
        "name": "利万高速长乐服务区充电站（利川方向）",
        "location": {
            "lon": 108.805467,
            "lat": 30.351554
        },
        "isNew": 1
    },
    {
        "name": "南渝高速武胜服务区充电站（重庆方向）",
        "location": {
            "lon": 106.295845,
            "lat": 30.377374
        },
        "isNew": 0
    },
    {
        "name": "长深高速庆元服务区充电站（长春方向）",
        "location": {
            "lon": 118.947068,
            "lat": 27.773654
        },
        "isNew": 0
    },
    {
        "name": "青银高速井陉服务区充电站（银川方向）",
        "location": {
            "lon": 114.067097,
            "lat": 37.988631
        },
        "isNew": 0
    },
    {
        "name": "二广高速济源服务区充电站（广州方向）",
        "location": {
            "lon": 112.676409,
            "lat": 35.111935
        },
        "isNew": 0
    },
    {
        "name": "青银高速井陉服务区充电站（青岛方向）",
        "location": {
            "lon": 114.067832,
            "lat": 37.986635
        },
        "isNew": 0
    },
    {
        "name": "京昆高速灵寿服务区充电站（北京方向）",
        "location": {
            "lon": 114.455539,
            "lat": 38.331188
        },
        "isNew": 0
    },
    {
        "name": "包茂高速黔江服务区（秀山方向）充电站",
        "location": {
            "lon": 108.771278,
            "lat": 29.429947
        },
        "isNew": 1
    },
    {
        "name": "恩黔高速咸丰服务区充电站（黔江方向）",
        "location": {
            "lon": 109.127188,
            "lat": 29.663543
        },
        "isNew": 1
    },
    {
        "name": "新元高速元氏服务区充电站（港澳方向）",
        "location": {
            "lon": 114.60297,
            "lat": 37.784389
        },
        "isNew": 0
    },
    {
        "name": "练杭高速德清服务区快充站（嘉兴方向）",
        "location": {
            "lon": 120.304095,
            "lat": 30.580942
        },
        "isNew": 1
    },
    {
        "name": "大广高速新洲服务区快充站（广州方向）",
        "location": {
            "lon": 114.903278,
            "lat": 30.953741
        },
        "isNew": 0
    },
    {
        "name": "威青高速即墨服务区充电站（威海方向）",
        "location": {
            "lon": 120.287424,
            "lat": 36.413932
        },
        "isNew": 0
    },
    {
        "name": "济祁高速蒙城服务区充电站（祁门方向）",
        "location": {
            "lon": 116.417081,
            "lat": 33.021169
        },
        "isNew": 0
    },
    {
        "name": "彭湖高速香隅服务区快充站（湖口方向）",
        "location": {
            "lon": 116.804951,
            "lat": 30.012911
        },
        "isNew": 0
    },
    {
        "name": "京昆高速唐县服务区充电站（昆明方向）",
        "location": {
            "lon": 114.90153,
            "lat": 38.709517
        },
        "isNew": 0
    },
    {
        "name": "沪蓉高速巴东服务区充电站（上海方向）",
        "location": {
            "lon": 110.430323,
            "lat": 31.170486
        },
        "isNew": 0
    },
    {
        "name": "麻阳高速浠水服务区快充站（麻城方向）",
        "location": {
            "lon": 115.368566,
            "lat": 30.538536
        },
        "isNew": 0
    },
    {
        "name": "荣乌高速涞源服务区充电站（乌海方向）",
        "location": {
            "lon": 114.559791,
            "lat": 39.375665
        },
        "isNew": 0
    },
    {
        "name": "京新高速洋河服务区充电站（北京方向）",
        "location": {
            "lon": 115.359854,
            "lat": 40.406603
        },
        "isNew": 0
    },
    {
        "name": "二广高速龙门服务区充电站（广州方向）",
        "location": {
            "lon": 112.519168,
            "lat": 34.589837
        },
        "isNew": 0
    },
    {
        "name": "福银高速黄梅服务区（银川方向）充电站",
        "location": {
            "lon": 115.885198,
            "lat": 30.033758
        },
        "isNew": 0
    },
    {
        "name": "福银高速黄梅服务区（福州方向）充电站",
        "location": {
            "lon": 115.883379,
            "lat": 30.03305
        },
        "isNew": 0
    },
    {
        "name": "杭瑞高速婺源服务区充电站（杭州方向）",
        "location": {
            "lon": 117.730526,
            "lat": 29.238917
        },
        "isNew": 0
    },
    {
        "name": "邢衡高速巨鹿服务区充电站（衡水方向）",
        "location": {
            "lon": 115.038739,
            "lat": 37.272603
        },
        "isNew": 0
    },
    {
        "name": "石黄高速黄骅服务区充电站（黄骅方向）",
        "location": {
            "lon": 117.370753,
            "lat": 38.299693
        },
        "isNew": 0
    },
    {
        "name": "沪蓉高速兴山服务区充电站（上海方向）",
        "location": {
            "lon": 110.862567,
            "lat": 31.165655
        },
        "isNew": 0
    },
    {
        "name": "西柏坡高速鹿泉服务区充电站（石家庄方向）",
        "location": {
            "lon": 114.263054,
            "lat": 38.178696
        },
        "isNew": 0
    },
    {
        "name": "江綦高速先锋服务区充电站(綦江方向)",
        "location": {
            "lon": 106.309952,
            "lat": 29.180035
        },
        "isNew": 1
    },
    {
        "name": "大广高速深州服务区充电站（大庆方向）",
        "location": {
            "lon": 115.673504,
            "lat": 38.064015
        },
        "isNew": 0
    },
    {
        "name": "京台高速休宁服务区充电站(北京方向)",
        "location": {
            "lon": 118.233846,
            "lat": 29.638843
        },
        "isNew": 0
    },
    {
        "name": "沈海高速胶州服务区充电站（沈阳方向）",
        "location": {
            "lon": 119.952033,
            "lat": 36.284421
        },
        "isNew": 0
    },
    {
        "name": "青兰高速东阳关服务区充电站（兰州方向）",
        "location": {
            "lon": 113.471162,
            "lat": 36.535763
        },
        "isNew": 0
    },
    {
        "name": "保沧高速高阳服务区充电站（保定方向）",
        "location": {
            "lon": 115.709126,
            "lat": 38.673547
        },
        "isNew": 0
    },
    {
        "name": "溧黄高速金沙服务区充电站（黄山方向）",
        "location": {
            "lon": 118.754138,
            "lat": 30.288273
        },
        "isNew": 0
    },
    {
        "name": "昌铜高速奉新服务区充电站（南昌方向）",
        "location": {
            "lon": 115.351713,
            "lat": 28.778767
        },
        "isNew": 0
    },
    {
        "name": "大广高速浠水服务区快充站（广州方向）",
        "location": {
            "lon": 115.045334,
            "lat": 30.5195
        },
        "isNew": 0
    },
    {
        "name": "彭湖高速香隅服务区充电站（澎湖方向）",
        "location": {
            "lon": 116.804374,
            "lat": 30.01379
        },
        "isNew": 0
    },
    {
        "name": "长深高速庆元服务区充电站（深圳方向）",
        "location": {
            "lon": 118.943699,
            "lat": 27.772082
        },
        "isNew": 0
    },
    {
        "name": "京港澳高速藁城服务区充电站（港澳方向）",
        "location": {
            "lon": 114.759056,
            "lat": 37.969078
        },
        "isNew": 0
    },
    {
        "name": "济祁高速砀山服务区充电站（祁门方向）",
        "location": {
            "lon": 116.40857,
            "lat": 34.465722
        },
        "isNew": 0
    },
    {
        "name": "济广高速梁山服务区（广州方向）充电站",
        "location": {
            "lon": 116.179274,
            "lat": 35.639454
        },
        "isNew": 0
    },
    {
        "name": "枣石高速江陵服务区充电站（枣阳方向）",
        "location": {
            "lon": 112.570843,
            "lat": 30.130386
        },
        "isNew": 0
    },
    {
        "name": "京昆高速盂县服务区充电站（昆明方向）",
        "location": {
            "lon": 113.475273,
            "lat": 38.051927
        },
        "isNew": 0
    },
    {
        "name": "溧黄高速宁国服务区充电站（溧阳方向）",
        "location": {
            "lon": 119.007616,
            "lat": 30.549687
        },
        "isNew": 0
    },
    {
        "name": "宁淮高速釜山服务区充电站（长春方向）",
        "location": {
            "lon": 118.723601,
            "lat": 32.634543
        },
        "isNew": 0
    },
    {
        "name": "福银高速黎川服务区充电站（银川方向）",
        "location": {
            "lon": 116.947082,
            "lat": 27.260593
        },
        "isNew": 0
    },
    {
        "name": "甬金高速东阳服务区充电站（宁波方向）",
        "location": {
            "lon": 120.348476,
            "lat": 29.338758
        },
        "isNew": 0
    },
    {
        "name": "恩黔高速芭蕉服务区充电站（黔江方向）",
        "location": {
            "lon": 109.462079,
            "lat": 30.155366
        },
        "isNew": 1
    },
    {
        "name": "沈海高速日照服务区充电站（海口方向）",
        "location": {
            "lon": 119.379986,
            "lat": 35.361696
        },
        "isNew": 0
    },
    {
        "name": "京昆高速霍州服务区充电站（北京方向）",
        "location": {
            "lon": 111.80015,
            "lat": 36.465755
        },
        "isNew": 0
    },
    {
        "name": "大广高速邱县服务区充电站（广州方向）",
        "location": {
            "lon": 115.197582,
            "lat": 36.72955
        },
        "isNew": 0
    },
    {
        "name": "杭长高速安吉服务区充电站（长兴方向）",
        "location": {
            "lon": 119.734572,
            "lat": 30.656082
        },
        "isNew": 0
    },
    {
        "name": "福银高速固原服务区银川方向充电站",
        "location": {
            "lon": 106.199556,
            "lat": 36.079888
        },
        "isNew": 1
    },
    {
        "name": "青银高速盐池服务区充电站（银川方向）",
        "location": {
            "lon": 107.439958,
            "lat": 37.772894
        },
        "isNew": 0
    },
    {
        "name": "荣乌高速寿光服务区（乌海方向）充电站",
        "location": {
            "lon": 118.696209,
            "lat": 37.094524
        },
        "isNew": 0
    },
    {
        "name": "长深高速武义服务区充电站（深圳方向）",
        "location": {
            "lon": 119.945236,
            "lat": 28.8628
        },
        "isNew": 0
    },
    {
        "name": "廊涿高速固安服务区充电站（廊坊方向）",
        "location": {
            "lon": 116.2139,
            "lat": 39.391
        },
        "isNew": 0
    },
    {
        "name": "京藏高速兴仁服务区充电站兰州方向",
        "location": {
            "lon": 105.286641,
            "lat": 36.955975
        },
        "isNew": 0
    },
    {
        "name": "唐津高速唐山服务区充电站（唐山方向）",
        "location": {
            "lon": 118.237554,
            "lat": 39.586092
        },
        "isNew": 0
    },
    {
        "name": "沪蓉高速巫山服务区重庆方向充电站",
        "location": {
            "lon": 109.906454,
            "lat": 31.113741
        },
        "isNew": 1
    },
    {
        "name": "二广高速襄垣服务区充电站（广州方向）",
        "location": {
            "lon": 112.932561,
            "lat": 36.521423
        },
        "isNew": 0
    },
    {
        "name": "京昆高速灵寿服务区充电站（昆明方向）",
        "location": {
            "lon": 114.453946,
            "lat": 38.331924
        },
        "isNew": 0
    },
    {
        "name": "京沪高速商河服务区（济阳南方向）充电站",
        "location": {
            "lon": 117.082394,
            "lat": 37.289382
        },
        "isNew": 0
    },
    {
        "name": "济广高速望江服务区充电站（广州方向）",
        "location": {
            "lon": 116.713612,
            "lat": 30.151239
        },
        "isNew": 0
    },
    {
        "name": "长深高速青州服务区（深圳方向）充电站",
        "location": {
            "lon": 118.556431,
            "lat": 36.747404
        },
        "isNew": 0
    },
    {
        "name": "大广高速大名服务区充电站（大庆方向）",
        "location": {
            "lon": 115.133931,
            "lat": 36.228343
        },
        "isNew": 0
    },
    {
        "name": "威青高速即墨服务区充电站（青岛方向）",
        "location": {
            "lon": 120.287622,
            "lat": 36.415572
        },
        "isNew": 0
    },
    {
        "name": "大广高速深州服务区充电站（广州方向）",
        "location": {
            "lon": 115.670734,
            "lat": 38.062985
        },
        "isNew": 0
    },
    {
        "name": "沪渝高速冷水服务区充电站（上海方向）",
        "location": {
            "lon": 108.557343,
            "lat": 30.145393
        },
        "isNew": 0
    },
    {
        "name": "荣乌高速平鲁服务区充电站（乌海方向）",
        "location": {
            "lon": 112.14805,
            "lat": 39.72264
        },
        "isNew": 0
    },
    {
        "name": "沪渝高速冷水服务区充电站（重庆方向）",
        "location": {
            "lon": 108.555528,
            "lat": 30.14548
        },
        "isNew": 0
    },
    {
        "name": "宁上高速铅山服务区充电站（上饶方向）",
        "location": {
            "lon": 117.796944,
            "lat": 28.175692
        },
        "isNew": 0
    },
    {
        "name": "青银高速阳泉服务区充电站（青岛方向）",
        "location": {
            "lon": 113.729859,
            "lat": 37.780859
        },
        "isNew": 0
    },
    {
        "name": "包茂高速秀山服务区重庆方向充电站",
        "location": {
            "lon": 108.988705,
            "lat": 28.512209
        },
        "isNew": 1
    },
    {
        "name": "沪昆高速上饶服务区充电站（上海方向）",
        "location": {
            "lon": 117.681825,
            "lat": 28.349828
        },
        "isNew": 0
    },
    {
        "name": "沪陕高速丹凤服务区快充站（上海方向）",
        "location": {
            "lon": 110.310981,
            "lat": 33.679332
        },
        "isNew": 0
    },
    {
        "name": "大广高速大名服务区充电站（广州方向）",
        "location": {
            "lon": 115.129661,
            "lat": 36.230394
        },
        "isNew": 0
    },
    {
        "name": "谷竹高速竹溪服务区（谷城方向）快充站",
        "location": {
            "lon": 109.571471,
            "lat": 32.322942
        },
        "isNew": 0
    },
    {
        "name": "沈海高速响水服务区充电站（沈阳方向）",
        "location": {
            "lon": 119.695927,
            "lat": 34.166688
        },
        "isNew": 0
    },
    {
        "name": "京昆高速襄汾服务区充电站（昆明方向）",
        "location": {
            "lon": 111.282962,
            "lat": 35.709091
        },
        "isNew": 0
    },
    {
        "name": "福银高速小池服务区快充站（福州方向）",
        "location": {
            "lon": 115.978058,
            "lat": 29.802989
        },
        "isNew": 0
    },
    {
        "name": "随岳高速京山服务区快充站（岳阳方向）",
        "location": {
            "lon": 113.238494,
            "lat": 31.220636
        },
        "isNew": 0
    },
    {
        "name": "恩黔高速芭蕉服务区充电站（恩施方向）",
        "location": {
            "lon": 109.463877,
            "lat": 30.157274
        },
        "isNew": 0
    },
    {
        "name": "青银高速潍坊服务区（银川方向）充电站",
        "location": {
            "lon": 119.149676,
            "lat": 36.752176
        },
        "isNew": 0
    },
    {
        "name": "京港澳高速定兴服务区充电站（北京方向）",
        "location": {
            "lon": 115.824794,
            "lat": 39.215009
        },
        "isNew": 0
    },
    {
        "name": "沈海高速胶州服务区充电站（海口方向）",
        "location": {
            "lon": 119.949074,
            "lat": 36.283076
        },
        "isNew": 0
    },
    {
        "name": "定武高速中卫服务区充电站中宁方向",
        "location": {
            "lon": 105.589662,
            "lat": 37.40295
        },
        "isNew": 0
    },
    {
        "name": "二广高速怀仁服务区充电站（广州方向）",
        "location": {
            "lon": 113.170434,
            "lat": 39.796057
        },
        "isNew": 0
    },
    {
        "name": "杭瑞高速涌泉服务区充电站（瑞丽方向）",
        "location": {
            "lon": 115.695436,
            "lat": 29.624075
        },
        "isNew": 0
    },
    {
        "name": "青银高速南宫服务区充电站（银川方向）",
        "location": {
            "lon": 115.304496,
            "lat": 37.358594
        },
        "isNew": 0
    },
    {
        "name": "枣石高速江陵服务区充电站（石首方向）",
        "location": {
            "lon": 112.568209,
            "lat": 30.130544
        },
        "isNew": 0
    },
    {
        "name": "荣乌高速大港服务区充电站（乌海方向）",
        "location": {
            "lon": 117.219499,
            "lat": 38.676694
        },
        "isNew": 0
    },
    {
        "name": "保沧高速河间服务区充电站（沧州方向）",
        "location": {
            "lon": 116.221945,
            "lat": 38.427273
        },
        "isNew": 0
    },
    {
        "name": "京台高速肥东服务区充电站（北京方向）",
        "location": {
            "lon": 117.456389,
            "lat": 31.853883
        },
        "isNew": 0
    },
    {
        "name": "宁淮高速釜山服务区充电站（深圳方向）",
        "location": {
            "lon": 118.721626,
            "lat": 32.636282
        },
        "isNew": 0
    },
    {
        "name": "青银高速淄博服务区充电站（青岛方向）",
        "location": {
            "lon": 118.067176,
            "lat": 36.860156
        },
        "isNew": 0
    },
    {
        "name": "二广高速长治服务区充电站（广州方向）",
        "location": {
            "lon": 112.991072,
            "lat": 36.261979
        },
        "isNew": 0
    },
    {
        "name": "随岳高速天门服务区充电站（随州方向）",
        "location": {
            "lon": 113.119166,
            "lat": 30.667736
        },
        "isNew": 0
    },
    {
        "name": "岳宜高速石首服务区充电站（岳阳方向）",
        "location": {
            "lon": 112.333275,
            "lat": 29.690597
        },
        "isNew": 0
    },
    {
        "name": "包茂高速黄陵服务区（包头方向）充电站",
        "location": {
            "lon": 109.209313,
            "lat": 35.564684
        },
        "isNew": 0
    },
    {
        "name": "沪渝高速天门服务区充电站（重庆方向）",
        "location": {
            "lon": 117.818614,
            "lat": 30.829245
        },
        "isNew": 0
    },
    {
        "name": "沪昆高速诸暨服务区充电站（上海方向）",
        "location": {
            "lon": 120.169911,
            "lat": 29.663369
        },
        "isNew": 0
    },
    {
        "name": "廊沧高速文安服务区充电站（廊坊方向）",
        "location": {
            "lon": 116.533815,
            "lat": 38.826928
        },
        "isNew": 0
    },
    {
        "name": "日兰高速曹州服务区（日照方向）充电站",
        "location": {
            "lon": 115.2916,
            "lat": 35.0768
        },
        "isNew": 0
    },
    {
        "name": "包茂高速武隆服务区充电站（茂名方向）",
        "location": {
            "lon": 107.77311,
            "lat": 29.329058
        },
        "isNew": 0
    },
    {
        "name": "京台高速开化服务区充电站（北京方向）",
        "location": {
            "lon": 118.405846,
            "lat": 29.284563
        },
        "isNew": 0
    },
    {
        "name": "杭宁高速青山服务区充电站（杭州方向）",
        "location": {
            "lon": 120.052093,
            "lat": 30.665621
        },
        "isNew": 0
    },
    {
        "name": "沪蓉高速汉川服务区充电站（成都方向）",
        "location": {
            "lon": 113.782543,
            "lat": 30.779128
        },
        "isNew": 0
    },
    {
        "name": "武鄂高速黄龙服务区充电站（鄂州方向）",
        "location": {
            "lon": 114.967605,
            "lat": 30.335273
        },
        "isNew": 0
    },
    {
        "name": "京昆高速唐县服务区充电站（北京方向）",
        "location": {
            "lon": 114.899542,
            "lat": 38.706271
        },
        "isNew": 0
    },
    {
        "name": "京昆高速阳曲服务区充电站（昆明方向）",
        "location": {
            "lon": 113.032728,
            "lat": 38.077554
        },
        "isNew": 0
    },
    {
        "name": "京港澳高速望都服务区充电站（港澳方向）",
        "location": {
            "lon": 115.223789,
            "lat": 38.666318
        },
        "isNew": 0
    },
    {
        "name": "溧黄高速宁国服务区充电站（黄山方向）",
        "location": {
            "lon": 119.007036,
            "lat": 30.551171
        },
        "isNew": 0
    },
    {
        "name": "杭浦高速海宁服务区充电站（上海方向）",
        "location": {
            "lon": 120.617656,
            "lat": 30.413614
        },
        "isNew": 0
    },
    {
        "name": "京昆高速灵石服务区充电站（北京方向）",
        "location": {
            "lon": 111.877056,
            "lat": 36.847968
        },
        "isNew": 0
    },
    {
        "name": "长深高速江宁服务区充电站（深圳方向）",
        "location": {
            "lon": 118.919567,
            "lat": 31.915981
        },
        "isNew": 0
    },
    {
        "name": "福银高速枣阳服务区充电站（银川方向）",
        "location": {
            "lon": 112.653015,
            "lat": 32.055576
        },
        "isNew": 0
    },
    {
        "name": "沪蓉高速巴东服务区充电站（成都方向）",
        "location": {
            "lon": 110.429035,
            "lat": 31.171441
        },
        "isNew": 0
    },
    {
        "name": "石黄高速辛集服务区充电站（黄骅方向）",
        "location": {
            "lon": 115.21142,
            "lat": 38.022741
        },
        "isNew": 0
    },
    {
        "name": "福银高速随州服务区（银川方向）快充站",
        "location": {
            "lon": 113.12174,
            "lat": 31.799442
        },
        "isNew": 0
    },
    {
        "name": "杭甬高速绍兴服务区充电站（宁波方向）",
        "location": {
            "lon": 120.642134,
            "lat": 30.098544
        },
        "isNew": 0
    },
    {
        "name": "京港澳高速原阳服务区充电站（北京方向）",
        "location": {
            "lon": 113.859888,
            "lat": 35.002804
        },
        "isNew": 0
    },
    {
        "name": "潼荣高速龙岗服务区（荣昌方向）充电站",
        "location": {
            "lon": 105.65284,
            "lat": 29.707971
        },
        "isNew": 1
    },
    {
        "name": "溧黄高速华阳服务区充电站（溧阳方向）",
        "location": {
            "lon": 118.544252,
            "lat": 30.061035
        },
        "isNew": 0
    },
    {
        "name": "沈海高速响水服务区充电站（海口方向）",
        "location": {
            "lon": 119.691856,
            "lat": 34.16633
        },
        "isNew": 0
    },
    {
        "name": "沈海高速灌云服务区充电站（海口方向）",
        "location": {
            "lon": 119.435355,
            "lat": 34.348634
        },
        "isNew": 0
    },
    {
        "name": "长深高速龙泉服务区充电站（深圳方向）",
        "location": {
            "lon": 119.095047,
            "lat": 28.023497
        },
        "isNew": 0
    },
    {
        "name": "渝昆高速荣昌服务区充电站（重庆方向）",
        "location": {
            "lon": 105.642332,
            "lat": 29.412924
        },
        "isNew": 0
    },
    {
        "name": "樟吉高速峡江服务区充电站（吉安方向）",
        "location": {
            "lon": 115.110206,
            "lat": 27.551167
        },
        "isNew": 0
    },
    {
        "name": "长深高速汉沽服务区充电站（长春方向）",
        "location": {
            "lon": 117.882487,
            "lat": 39.3294
        },
        "isNew": 0
    },
    {
        "name": "延西高速洛川服务区（延安方向）充电站",
        "location": {
            "lon": 109.2212,
            "lat": 35.458
        },
        "isNew": 0
    },
    {
        "name": "常台高速嵊州服务区充电站（常熟方向）",
        "location": {
            "lon": 120.841888,
            "lat": 29.786511
        },
        "isNew": 0
    },
    {
        "name": "大广高速饶阳服务区充电站（广州方向）",
        "location": {
            "lon": 115.643318,
            "lat": 38.171986
        },
        "isNew": 0
    },
    {
        "name": "京港澳高速邯郸服务区充电站（北京方向）",
        "location": {
            "lon": 114.54565,
            "lat": 36.562981
        },
        "isNew": 0
    },
    {
        "name": "沈海高速大丰服务区充电站（海口方向）",
        "location": {
            "lon": 120.383313,
            "lat": 33.109971
        },
        "isNew": 0
    },
    {
        "name": "天黎高速阳高服务区充电站（黎城方向）",
        "location": {
            "lon": 113.8577,
            "lat": 40.41495
        },
        "isNew": 0
    },
    {
        "name": "蕲嘉高速嘉鱼服务区（嘉鱼方向）充电站",
        "location": {
            "lon": 114.109697,
            "lat": 29.994602
        },
        "isNew": 1
    },
    {
        "name": "包茂高速彭水服务区（秀山方向）充电站",
        "location": {
            "lon": 108.075595,
            "lat": 29.392177
        },
        "isNew": 1
    },
    {
        "name": "京沪高速范水服务区充电站（北京方向）",
        "location": {
            "lon": 119.441852,
            "lat": 33.094094
        },
        "isNew": 0
    },
    {
        "name": "大广高速上高服务区充电站（广州方向）",
        "location": {
            "lon": 114.838281,
            "lat": 28.096227
        },
        "isNew": 0
    },
    {
        "name": "包茂高速彭水服务区（重庆方向）充电站",
        "location": {
            "lon": 108.075595,
            "lat": 29.392177
        },
        "isNew": 1
    },
    {
        "name": "诸永高速磐安服务区充电站（永嘉方向）",
        "location": {
            "lon": 120.414742,
            "lat": 28.985592
        },
        "isNew": 0
    },
    {
        "name": "荣乌高速霸州服务区充电站（乌海方向）",
        "location": {
            "lon": 116.747429,
            "lat": 39.130837
        },
        "isNew": 0
    },
    {
        "name": "京港澳高速涿州服务区充电站（北京方向）",
        "location": {
            "lon": 116.039043,
            "lat": 39.462821
        },
        "isNew": 0
    },
    {
        "name": "沈海高速奉化服务区充电站（海口方向）",
        "location": {
            "lon": 121.442291,
            "lat": 29.611871
        },
        "isNew": 0
    },
    {
        "name": "滨莱高速高青服务区充电站（滨州方向）",
        "location": {
            "lon": 117.97463,
            "lat": 37.119674
        },
        "isNew": 0
    },
    {
        "name": "大广高速散花服务区快充站（大庆方向）",
        "location": {
            "lon": 115.129913,
            "lat": 30.287025
        },
        "isNew": 0
    },
    {
        "name": "济广高速曹县服务区（广州方向）充电站",
        "location": {
            "lon": 115.64101,
            "lat": 34.89169
        },
        "isNew": 0
    },
    {
        "name": "威青高速文登服务区（青岛方向）充电站",
        "location": {
            "lon": 121.887222,
            "lat": 37.028155
        },
        "isNew": 0
    },
    {
        "name": "大广高速信丰服务区充电站（大庆方向）",
        "location": {
            "lon": 114.884841,
            "lat": 25.055942
        },
        "isNew": 0
    },
    {
        "name": "沪蓉高速云阳服务区充电站（成都方向）",
        "location": {
            "lon": 108.702987,
            "lat": 30.974722
        },
        "isNew": 0
    },
    {
        "name": "大广高速吉安服务区充电站（广州方向）",
        "location": {
            "lon": 114.853201,
            "lat": 26.975905
        },
        "isNew": 0
    },
    {
        "name": "沪蓉高速兴山服务区充电站（成都方向）",
        "location": {
            "lon": 110.856945,
            "lat": 31.164517
        },
        "isNew": 0
    },
    {
        "name": "黄鄂高速华容服务区充电站（鄂州方向）",
        "location": {
            "lon": 114.778774,
            "lat": 30.529777
        },
        "isNew": 0
    },
    {
        "name": "沈海高速西海服务区充电站（沈阳方向）",
        "location": {
            "lon": 122.318923,
            "lat": 40.443182
        },
        "isNew": 0
    },
    {
        "name": "芜合高速福山服务区充电站（合肥方向）",
        "location": {
            "lon": 118.026914,
            "lat": 31.5824
        },
        "isNew": 0
    },
    {
        "name": "西柏坡高速平山服务区充电站（石家庄方向）",
        "location": {
            "lon": 114.090693,
            "lat": 38.237466
        },
        "isNew": 0
    },
    {
        "name": "淮徐高速洋河服务区快充站（徐州方向）",
        "location": {
            "lon": 118.316888,
            "lat": 33.799828
        },
        "isNew": 0
    },
    {
        "name": "长深高速丽水服务区充电站（长春方向）",
        "location": {
            "lon": 119.864168,
            "lat": 28.493897
        },
        "isNew": 0
    },
    {
        "name": "京港澳高速漯河服务区快充站（港澳方向）",
        "location": {
            "lon": 114.056683,
            "lat": 33.734885
        },
        "isNew": 0
    },
    {
        "name": "沪渝高速潜江服务区充电站（重庆方向）",
        "location": {
            "lon": 112.908861,
            "lat": 30.380488
        },
        "isNew": 0
    },
    {
        "name": "青银高速清河服务区充电站（青岛方向）",
        "location": {
            "lon": 115.761137,
            "lat": 37.082159
        },
        "isNew": 0
    },
    {
        "name": "常嘉高速石牌服务区充电站（常熟方向）",
        "location": {
            "lon": 120.897698,
            "lat": 31.508277
        },
        "isNew": 0
    },
    {
        "name": "沪渝高速仙桃服务区充电站（上海方向）",
        "location": {
            "lon": 113.525615,
            "lat": 30.338964
        },
        "isNew": 0
    },
    {
        "name": "保沧高速河间服务区充电站（保定方向）",
        "location": {
            "lon": 116.224348,
            "lat": 38.428912
        },
        "isNew": 0
    },
    {
        "name": "运风高速永济服务区充电站（运城方向）",
        "location": {
            "lon": 110.57265,
            "lat": 34.932544
        },
        "isNew": 1
    },
    {
        "name": "杭新景高速建德服务区充电站（衢州方向）",
        "location": {
            "lon": 119.385778,
            "lat": 29.54286
        },
        "isNew": 0
    },
    {
        "name": "京沪高速泰州广陵服务区充电站（上海方向）",
        "location": {
            "lon": 120.223693,
            "lat": 32.107629
        },
        "isNew": 0
    },
    {
        "name": "京沪高速雪野湖服务区（上海方向）充电站",
        "location": {
            "lon": 117.558657,
            "lat": 36.409313
        },
        "isNew": 0
    },
    {
        "name": "沪渝高速广德服务区充电站（重庆方向）",
        "location": {
            "lon": 119.402584,
            "lat": 30.871811
        },
        "isNew": 0
    },
    {
        "name": "沪昆高速嘉兴服务区充电站（昆明方向）",
        "location": {
            "lon": 120.675044,
            "lat": 30.620893
        },
        "isNew": 0
    },
    {
        "name": "京港澳高速信阳服务区充电站（北京方向）",
        "location": {
            "lon": 114.158898,
            "lat": 32.25721
        },
        "isNew": 0
    },
    {
        "name": "京港澳高速巴陵服务区充电站（北京方向）",
        "location": {
            "lon": 113.271585,
            "lat": 29.068566
        },
        "isNew": 0
    },
    {
        "name": "大广高速燕夏服务区（广州方向）",
        "location": {
            "lon": 114.909713,
            "lat": 29.576152
        },
        "isNew": 0
    },
    {
        "name": "孙右高速官堡服务区（阳高方向）",
        "location": {
            "lon": 113.520273,
            "lat": 40.024265
        },
        "isNew": 1
    },
    {
        "name": "唐山唐通服务区超级充电站",
        "location": {
            "lon": 118.101757,
            "lat": 39.627878
        },
        "isNew": 0
    },
    {
        "name": "莱芜长运出租车服务区项目",
        "location": {
            "lon": 117.694065,
            "lat": 36.198338
        },
        "isNew": 0
    },
    {
        "name": "德昌高速军山湖服务区充电站（德兴方向）",
        "location": {
            "lon": 116.352805,
            "lat": 28.685738
        },
        "isNew": 0
    },
    {
        "name": "随岳高速均川服务区充电站（随州方向）",
        "location": {
            "lon": 113.211331,
            "lat": 31.601571
        },
        "isNew": 0
    },
    {
        "name": "滨莱高速文昌湖服务区（滨州方向）充电站",
        "location": {
            "lon": 117.887529,
            "lat": 36.683945
        },
        "isNew": 0
    },
    {
        "name": "沈海高速莱西服务区充电站（海口方向）",
        "location": {
            "lon": 120.371468,
            "lat": 36.78888
        },
        "isNew": 0
    },
    {
        "name": "塘承高速宁河服务区充电站（承德方向）",
        "location": {
            "lon": 117.605168,
            "lat": 39.449814
        },
        "isNew": 0
    },
    {
        "name": "青银高速晋中服务区充电站（银川方向）",
        "location": {
            "lon": 112.882705,
            "lat": 37.834745
        },
        "isNew": 0
    },
    {
        "name": "厦蓉高速天宝服务区公共充电站（成都方向）",
        "location": {
            "lon": 117.566103,
            "lat": 24.624137
        },
        "isNew": 0
    },
    {
        "name": "莘南高速妹冢服务区（南乐方向）充电站",
        "location": {
            "lon": 115.544822,
            "lat": 36.088524
        },
        "isNew": 0
    },
    {
        "name": "三环高速双凤服务区（永川方向）充电站",
        "location": {
            "lon": 105.904833,
            "lat": 29.238779
        },
        "isNew": 0
    },
    {
        "name": "大广高速密云服务区公共充电站(广州方向)",
        "location": {
            "lon": 116.935034,
            "lat": 40.397852
        },
        "isNew": 0
    },
    {
        "name": "麻安高速大洪山服务区充电站（麻城方向）",
        "location": {
            "lon": 113.1188,
            "lat": 31.616573
        },
        "isNew": 0
    },
    {
        "name": "随岳高速封江服务区充电站(岳阳方向)",
        "location": {
            "lon": 113.363258,
            "lat": 32.028296
        },
        "isNew": 0
    },
    {
        "name": "渝广高速双槐服务区充电站（重庆方向）",
        "location": {
            "lon": 106.582415,
            "lat": 30.198632
        },
        "isNew": 0
    },
    {
        "name": "沪渝高速新立服务区充电站（上海方向）",
        "location": {
            "lon": 107.659073,
            "lat": 30.285034
        },
        "isNew": 0
    },
    {
        "name": "张石高速易县服务区充电站（石家庄方向）",
        "location": {
            "lon": 115.27766,
            "lat": 39.333507
        },
        "isNew": 0
    },
    {
        "name": "宁上高速铅山服务区充电站（宁德方向）",
        "location": {
            "lon": 117.794836,
            "lat": 28.175505
        },
        "isNew": 0
    },
    {
        "name": "京港澳高速藁城北服务区充电站（港澳方向）",
        "location": {
            "lon": 114.776676,
            "lat": 38.226696
        },
        "isNew": 0
    },
    {
        "name": "承朝高速平泉服务区充电站（承德方向）",
        "location": {
            "lon": 118.692076,
            "lat": 40.923529
        },
        "isNew": 0
    },
    {
        "name": "东吕高速盐窝服务区（吕梁方向）充电站",
        "location": {
            "lon": 118.405167,
            "lat": 37.645368
        },
        "isNew": 0
    },
    {
        "name": "邢衡高速冀州南服务区充电站（衡水方向）",
        "location": {
            "lon": 115.557158,
            "lat": 37.472406
        },
        "isNew": 0
    },
    {
        "name": "张承高速丰宁服务区充电站（承德方向）",
        "location": {
            "lon": 116.608665,
            "lat": 41.38891
        },
        "isNew": 0
    },
    {
        "name": "京台高速仙霞服务区充电站（北京方向）",
        "location": {
            "lon": 118.537488,
            "lat": 28.480017
        },
        "isNew": 0
    },
    {
        "name": "京新高速宣化南服务区充电站（北京方向）",
        "location": {
            "lon": 114.959048,
            "lat": 40.581859
        },
        "isNew": 0
    },
    {
        "name": "京哈高速新安镇服务区充电站（北京方向）",
        "location": {
            "lon": 117.577645,
            "lat": 39.734519
        },
        "isNew": 0
    },
    {
        "name": "青银高速宁东服务区充电站（银川方向）",
        "location": {
            "lon": 106.592752,
            "lat": 38.165125
        },
        "isNew": 0
    },
    {
        "name": "张承高速凤山服务区充电站（承德方向）",
        "location": {
            "lon": 117.18166,
            "lat": 41.26237
        },
        "isNew": 0
    },
    {
        "name": "青银高速宁东服务区充电站（青岛方向）",
        "location": {
            "lon": 106.594927,
            "lat": 38.165028
        },
        "isNew": 0
    },
    {
        "name": "京沪高速公路临沂服务区充电站（北京方向）",
        "location": {
            "lon": 118.251961,
            "lat": 35.168415
        },
        "isNew": 0
    },
    {
        "name": "京哈高速山海关服务区充电站（北京方向）",
        "location": {
            "lon": 119.756142,
            "lat": 40.027211
        },
        "isNew": 1
    },
    {
        "name": "长深高速新村服务区公共充电站（长春方向）",
        "location": {
            "lon": 118.244472,
            "lat": 26.771986
        },
        "isNew": 0
    },
    {
        "name": "京新高速沙城服务区充电站（北京方向）",
        "location": {
            "lon": 115.654479,
            "lat": 40.388881
        },
        "isNew": 0
    },
    {
        "name": "谷竹高速溢水服务区快充站（谷城方向）",
        "location": {
            "lon": 110.096161,
            "lat": 32.252606
        },
        "isNew": 0
    },
    {
        "name": "长宜高速煤山服务区快充站（长兴方向）",
        "location": {
            "lon": 119.656144,
            "lat": 31.057434
        },
        "isNew": 0
    },
    {
        "name": "大广高速衡水湖服务区充电站（广州方向）",
        "location": {
            "lon": 115.696967,
            "lat": 37.569251
        },
        "isNew": 0
    },
    {
        "name": "内环高速南泉服务区（虎啸内方向）充电站",
        "location": {
            "lon": 106.597812,
            "lat": 29.412586
        },
        "isNew": 0
    },
    {
        "name": "恩广高速开州服务区（达州方向）充电站",
        "location": {
            "lon": 108.164183,
            "lat": 31.060776
        },
        "isNew": 0
    },
    {
        "name": "长深高速小桥服务区公共充电站（长春方向）",
        "location": {
            "lon": 118.337529,
            "lat": 26.95184
        },
        "isNew": 0
    },
    {
        "name": "大广高速西演服务区充电站（大庆方向）",
        "location": {
            "lon": 115.911914,
            "lat": 38.607475
        },
        "isNew": 0
    },
    {
        "name": "常嘉高速汾湖服务区充电站（大桥方向）",
        "location": {
            "lon": 120.823612,
            "lat": 30.994652
        },
        "isNew": 0
    },
    {
        "name": "金丽温高速桥头服务区充电站(温州方向)",
        "location": {
            "lon": 120.515856,
            "lat": 28.136514
        },
        "isNew": 0
    },
    {
        "name": "长深高速六塘服务区充电站（长春方向）",
        "location": {
            "lon": 119.271802,
            "lat": 34.08868
        },
        "isNew": 0
    },
    {
        "name": "西安南五台南服务区充电站",
        "location": {
            "lon": 108.995835,
            "lat": 34.02634
        },
        "isNew": 0
    },
    {
        "name": "京台高速江山服务区充电站（台北方向）",
        "location": {
            "lon": 118.674671,
            "lat": 28.807647
        },
        "isNew": 0
    },
    {
        "name": "宁波绕城高速镇海服务区充电站（宁波方向）",
        "location": {
            "lon": 121.610504,
            "lat": 29.991507
        },
        "isNew": 0
    },
    {
        "name": "荣乌高速徐水服务区充电站（荣成方向）",
        "location": {
            "lon": 115.571011,
            "lat": 39.070974
        },
        "isNew": 0
    },
    {
        "name": "济广高速会昌南服务区充电站(广州方向)",
        "location": {
            "lon": 115.765058,
            "lat": 25.329543
        },
        "isNew": 0
    },
    {
        "name": "杭甬高速潘火服务区充电站（宁波方向）",
        "location": {
            "lon": 121.581802,
            "lat": 29.838817
        },
        "isNew": 0
    },
    {
        "name": "石黄高速沧州服务区充电站（石家庄方向）",
        "location": {
            "lon": 116.911943,
            "lat": 38.235793
        },
        "isNew": 0
    },
    {
        "name": "张石高速张北服务区充电站（石家庄方向）",
        "location": {
            "lon": 114.73831,
            "lat": 41.219496
        },
        "isNew": 0
    },
    {
        "name": "宿登高速谯城服务区充电站（宿州方向）",
        "location": {
            "lon": 115.699072,
            "lat": 33.922578
        },
        "isNew": 0
    },
    {
        "name": "滁马高速香泉服务区充电站（滁州方向）",
        "location": {
            "lon": 118.343575,
            "lat": 31.925149
        },
        "isNew": 0
    },
    {
        "name": "济徐高速鱼台服务区（徐州方向）充电站",
        "location": {
            "lon": 116.531323,
            "lat": 35.015635
        },
        "isNew": 0
    },
    {
        "name": "京港澳高速邢台服务区充电站（北京方向）",
        "location": {
            "lon": 114.585836,
            "lat": 37.144026
        },
        "isNew": 0
    },
    {
        "name": "滨保高速小韩庄服务区充电站（保定方向）",
        "location": {
            "lon": 117.159647,
            "lat": 39.322472
        },
        "isNew": 0
    },
    {
        "name": "京台高速呈坎服务区充电站(北京方向)",
        "location": {
            "lon": 118.286602,
            "lat": 29.93533
        },
        "isNew": 0
    },
    {
        "name": "二广高速原平服务区充电站（广州方向）",
        "location": {
            "lon": 112.747604,
            "lat": 38.688701
        },
        "isNew": 0
    },
    {
        "name": "京台高速庄里服务区充电站（台北方向）",
        "location": {
            "lon": 116.975207,
            "lat": 33.973295
        },
        "isNew": 0
    },
    {
        "name": "江习高速蔡家服务区充电站(习水方向)",
        "location": {
            "lon": 106.335681,
            "lat": 28.892964
        },
        "isNew": 1
    },
    {
        "name": "武英高速英山服务区快充站（武汉方向）",
        "location": {
            "lon": 115.695928,
            "lat": 30.780058
        },
        "isNew": 0
    },
    {
        "name": "京沪高速公路临沂服务区充电站（上海方向）",
        "location": {
            "lon": 118.249399,
            "lat": 35.16913
        },
        "isNew": 0
    },
    {
        "name": "青银高速高密东服务区（银川方向）充电站",
        "location": {
            "lon": 119.898672,
            "lat": 36.424297
        },
        "isNew": 0
    },
    {
        "name": "京台高速曲阜服务区（台北方向）充电站",
        "location": {
            "lon": 117.046977,
            "lat": 35.562238
        },
        "isNew": 0
    },
    {
        "name": "济徐高速敬安服务区充电站（徐州方向）",
        "location": {
            "lon": 116.953066,
            "lat": 34.535127
        },
        "isNew": 0
    },
    {
        "name": "福寿高速南阳服务区公共充电站（宁德方向）",
        "location": {
            "lon": 119.59222,
            "lat": 27.3876
        },
        "isNew": 0
    },
    {
        "name": "衡德高速南江江服务区充电站（德州方向）",
        "location": {
            "lon": 116.075024,
            "lat": 37.517877
        },
        "isNew": 0
    },
    {
        "name": "承朝高速三沟服务区充电站（朝阳方向）",
        "location": {
            "lon": 118.187159,
            "lat": 41.050204
        },
        "isNew": 0
    },
    {
        "name": "济广高速伍明服务区充电站（广州方向）",
        "location": {
            "lon": 115.89684,
            "lat": 33.044886
        },
        "isNew": 0
    },
    {
        "name": "青兰高速神林高速服务区充电站青岛方向",
        "location": {
            "lon": 105.925944,
            "lat": 35.588453
        },
        "isNew": 1
    },
    {
        "name": "福银高速上街服务区公共充电站（福州方向）",
        "location": {
            "lon": 119.209743,
            "lat": 26.005883
        },
        "isNew": 0
    },
    {
        "name": "福寿高速南阳服务区公共充电站（江苏方向）",
        "location": {
            "lon": 119.5941,
            "lat": 27.387
        },
        "isNew": 0
    },
    {
        "name": "济祁高速砀山服务区充电站（济南方向）",
        "location": {
            "lon": 116.411834,
            "lat": 34.465195
        },
        "isNew": 0
    },
    {
        "name": "长深高速王兴服务区充电站（长春方向）",
        "location": {
            "lon": 119.145897,
            "lat": 33.717714
        },
        "isNew": 0
    },
    {
        "name": "沪蓉高速木子店服务区充电站（成都方向）",
        "location": {
            "lon": 115.417432,
            "lat": 31.2376
        },
        "isNew": 0
    },
    {
        "name": "大广高速威县北服务区充电站（广州方向）",
        "location": {
            "lon": 115.462591,
            "lat": 37.13408
        },
        "isNew": 0
    },
    {
        "name": "启扬高速瘦西湖服务区充电站（扬州方向）",
        "location": {
            "lon": 119.559924,
            "lat": 32.483186
        },
        "isNew": 0
    },
    {
        "name": "京沪高速唐官屯服务区充电站（北京方向）",
        "location": {
            "lon": 116.888394,
            "lat": 38.682394
        },
        "isNew": 0
    },
    {
        "name": "京秦高速白涧服务区充电站（秦皇岛方向）",
        "location": {
            "lon": 117.22475,
            "lat": 40.015508
        },
        "isNew": 0
    },
    {
        "name": "长深高速小桥服务区公共充电站（深圳方向）",
        "location": {
            "lon": 118.336972,
            "lat": 26.952657
        },
        "isNew": 0
    },
    {
        "name": "谷竹高速溢水服务区快充站（竹溪方向）",
        "location": {
            "lon": 110.096209,
            "lat": 32.254543
        },
        "isNew": 0
    },
    {
        "name": "杭瑞高速石钟山服务区充电站（瑞丽方向）",
        "location": {
            "lon": 116.280111,
            "lat": 29.703199
        },
        "isNew": 0
    },
    {
        "name": "邢衡高速冀州南服务区充电站（邢台方向）",
        "location": {
            "lon": 115.559658,
            "lat": 37.473581
        },
        "isNew": 0
    },
    {
        "name": "大广高速金山岭服务区充电站（大庆方向）",
        "location": {
            "lon": 117.285994,
            "lat": 40.684462
        },
        "isNew": 0
    },
    {
        "name": "淮徐高速高作服务区充电站（淮安方向）",
        "location": {
            "lon": 118.034687,
            "lat": 33.931364
        },
        "isNew": 0
    },
    {
        "name": "秦滨高速渤海新区服务区充电站（滨州方向）",
        "location": {
            "lon": 117.664032,
            "lat": 38.406948
        },
        "isNew": 0
    },
    {
        "name": "宁洛高速大溪河服务区充电站（南京方向）",
        "location": {
            "lon": 117.801781,
            "lat": 32.891661
        },
        "isNew": 0
    },
    {
        "name": "承赤高速双峰寺服务区充电站（大庆方向）",
        "location": {
            "lon": 117.9412,
            "lat": 41.051298
        },
        "isNew": 0
    },
    {
        "name": "京沪高速六洞服务区充电站（上海方向）",
        "location": {
            "lon": 119.263953,
            "lat": 33.423444
        },
        "isNew": 0
    },
    {
        "name": "徐明高速冯庙服务区（明光方向）充电站",
        "location": {
            "lon": 117.688837,
            "lat": 33.688121
        },
        "isNew": 0
    },
    {
        "name": "济广高速南丰服务区充电站（济南方向）",
        "location": {
            "lon": 116.500062,
            "lat": 27.063743
        },
        "isNew": 0
    },
    {
        "name": "塘承高速蓟州服务区充电站（滨海方向）",
        "location": {
            "lon": 117.479629,
            "lat": 39.887938
        },
        "isNew": 0
    },
    {
        "name": "沈海高速莱西服务区充电站（沈阳方向）",
        "location": {
            "lon": 120.374971,
            "lat": 36.788605
        },
        "isNew": 0
    },
    {
        "name": "济广高速广昌服务区充电站（济南方向）",
        "location": {
            "lon": 116.344041,
            "lat": 26.570917
        },
        "isNew": 0
    },
    {
        "name": "淮徐高速古黄河服务区充电站（徐州方向）",
        "location": {
            "lon": 117.418896,
            "lat": 34.127002
        },
        "isNew": 0
    },
    {
        "name": "济徐高速济宁服务区（济南方向）充电站",
        "location": {
            "lon": 116.466772,
            "lat": 35.495328
        },
        "isNew": 0
    },
    {
        "name": "随岳高速均川服务区充电站（岳阳方向）",
        "location": {
            "lon": 113.208874,
            "lat": 31.604317
        },
        "isNew": 0
    },
    {
        "name": "大广高速罗铺服务区快充站（广州方向）",
        "location": {
            "lon": 114.920324,
            "lat": 31.25858
        },
        "isNew": 0
    },
    {
        "name": "大广高速衡水湖服务区充电站（大庆方向）",
        "location": {
            "lon": 115.698974,
            "lat": 37.568035
        },
        "isNew": 0
    },
    {
        "name": "常台高速新塍服务区充电站（台州方向）",
        "location": {
            "lon": 120.665153,
            "lat": 30.817298
        },
        "isNew": 0
    },
    {
        "name": "大呼高速右玉服务区充电站（大同方向）",
        "location": {
            "lon": 112.387203,
            "lat": 40.090794
        },
        "isNew": 1
    },
    {
        "name": "衡德高速王瞳服务区充电站（德州方向）",
        "location": {
            "lon": 116.176419,
            "lat": 37.547249
        },
        "isNew": 0
    },
    {
        "name": "京港澳高速孝感服务区公共充电站（港澳方向）",
        "location": {
            "lon": 114.069434,
            "lat": 31.003829
        },
        "isNew": 0
    },
    {
        "name": "黄浮高速牯牛降服务区充电站（黄山方向）",
        "location": {
            "lon": 117.543863,
            "lat": 29.835804
        },
        "isNew": 0
    },
    {
        "name": "长深高速东庐山服务区充电站（深圳方向）",
        "location": {
            "lon": 119.150294,
            "lat": 31.610941
        },
        "isNew": 0
    },
    {
        "name": "成德南高速槐树服务区充电站（成都方向）",
        "location": {
            "lon": 105.810986,
            "lat": 31.174145
        },
        "isNew": 0
    },
    {
        "name": "阳五高速盂县北服务区充电站（阳泉方向）",
        "location": {
            "lon": 113.345938,
            "lat": 38.344066
        },
        "isNew": 1
    },
    {
        "name": "济广高速岳西服务区充电站（广州方向）",
        "location": {
            "lon": 116.319758,
            "lat": 30.894779
        },
        "isNew": 0
    },
    {
        "name": "沪渝高速江夏服务区充电站（重庆方向）",
        "location": {
            "lon": 114.395384,
            "lat": 30.358794
        },
        "isNew": 0
    },
    {
        "name": "宁洛高速二桥服务区充电站（南京方向）",
        "location": {
            "lon": 118.831646,
            "lat": 32.173509
        },
        "isNew": 0
    },
    {
        "name": "包茂高速古路服务区充电站（包头方向）",
        "location": {
            "lon": 106.741606,
            "lat": 29.833225
        },
        "isNew": 0
    },
    {
        "name": "大广高速何市服务区充电站（大庆方向）",
        "location": {
            "lon": 114.63772,
            "lat": 28.816023
        },
        "isNew": 0
    },
    {
        "name": "大广高速牛驼服务区充电站（广州方向）",
        "location": {
            "lon": 116.289868,
            "lat": 39.275558
        },
        "isNew": 0
    },
    {
        "name": "高界高速宿松服务区充电站（高河方向）",
        "location": {
            "lon": 116.114474,
            "lat": 30.179218
        },
        "isNew": 0
    },
    {
        "name": "荣乌高速山阴服务区充电站（荣成方向）",
        "location": {
            "lon": 112.60993,
            "lat": 39.55322
        },
        "isNew": 0
    },
    {
        "name": "京沪高速公路孟村服务区（北京方向）充电站",
        "location": {
            "lon": 117.033705,
            "lat": 38.090025
        },
        "isNew": 0
    },
    {
        "name": "廊沧高速后奕服务区充电站（沧州方向）",
        "location": {
            "lon": 116.603632,
            "lat": 39.241176
        },
        "isNew": 0
    },
    {
        "name": "福银高速鸣沙服务区充电站中卫方向",
        "location": {
            "lon": 105.911719,
            "lat": 37.569542
        },
        "isNew": 0
    },
    {
        "name": "临枣高速峄城服务区（枣庄方向）充电站",
        "location": {
            "lon": 117.664645,
            "lat": 34.752117
        },
        "isNew": 0
    },
    {
        "name": "京昆高速澄城服务区公共充电站（北京方向）",
        "location": {
            "lon": 109.97335,
            "lat": 35.03042
        },
        "isNew": 0
    },
    {
        "name": "兰海高速赶水服务区（贵州方向）充电站",
        "location": {
            "lon": 106.746124,
            "lat": 28.684381
        },
        "isNew": 0
    },
    {
        "name": "泉南高速省新服务区公共充电站（泉州方向）",
        "location": {
            "lon": 118.398759,
            "lat": 25.047026
        },
        "isNew": 0
    },
    {
        "name": "青银高速晋中服务区充电站（青岛方向）",
        "location": {
            "lon": 112.885687,
            "lat": 37.83533
        },
        "isNew": 0
    },
    {
        "name": "京港澳高速孝感服务区公共充电站（北京方向）",
        "location": {
            "lon": 114.067954,
            "lat": 31.004105
        },
        "isNew": 0
    },
    {
        "name": "启扬高速泰州白米服务区充电站（扬州方向）",
        "location": {
            "lon": 120.255783,
            "lat": 32.517814
        },
        "isNew": 0
    },
    {
        "name": "福银高速钟岗服务区充电站（福州方向）",
        "location": {
            "lon": 111.849047,
            "lat": 32.260987
        },
        "isNew": 0
    },
    {
        "name": "包茂高速黄陵服务区（茂明方向）充电站",
        "location": {
            "lon": 109.210444,
            "lat": 35.565752
        },
        "isNew": 0
    },
    {
        "name": "沪渝高速晏家服务区充电站（重庆方向）",
        "location": {
            "lon": 106.991168,
            "lat": 29.814234
        },
        "isNew": 0
    },
    {
        "name": "新扬高速明祖陵服务区充电站（新沂方向）",
        "location": {
            "lon": 118.418985,
            "lat": 33.090331
        },
        "isNew": 0
    },
    {
        "name": "成自泸高速威远服务区充电站（成都方向）",
        "location": {
            "lon": 104.635536,
            "lat": 29.492443
        },
        "isNew": 0
    },
    {
        "name": "漳永高速和睦服务区公共充电站（永安方向）",
        "location": {
            "lon": 117.532119,
            "lat": 25.539835
        },
        "isNew": 0
    },
    {
        "name": "铜南宣高速南陵服务区充电站（宣城方向）",
        "location": {
            "lon": 118.222265,
            "lat": 30.947667
        },
        "isNew": 1
    },
    {
        "name": "长深高速蒋庵服务区充电站（深圳方向）",
        "location": {
            "lon": 119.196297,
            "lat": 33.779607
        },
        "isNew": 0
    },
    {
        "name": "石黄高速献县服务区充电站（石家庄方向）",
        "location": {
            "lon": 116.419977,
            "lat": 38.236221
        },
        "isNew": 0
    },
    {
        "name": "沪蓉高速荆坪服务区充电站（上海方向）",
        "location": {
            "lon": 107.081653,
            "lat": 30.25814
        },
        "isNew": 0
    },
    {
        "name": "太行山高速临城服务区充电站（邯郸方向）",
        "location": {
            "lon": 114.305616,
            "lat": 37.40599
        },
        "isNew": 0
    },
    {
        "name": "沈海高速东台服务区充电站（沈阳方向）",
        "location": {
            "lon": 120.494101,
            "lat": 32.705442
        },
        "isNew": 0
    },
    {
        "name": "大广高速牛驼服务区充电站（大庆方向）",
        "location": {
            "lon": 116.292175,
            "lat": 39.274973
        },
        "isNew": 0
    },
    {
        "name": "京津高速永乐店服务区公共充电站(北京方向)",
        "location": {
            "lon": 116.813532,
            "lat": 39.642999
        },
        "isNew": 0
    },
    {
        "name": "包茂高速水江服务区充电站（茂名方向）",
        "location": {
            "lon": 107.311332,
            "lat": 29.267489
        },
        "isNew": 0
    },
    {
        "name": "沪陕高速正谊服务区充电站（上海方向）",
        "location": {
            "lon": 119.669584,
            "lat": 32.407964
        },
        "isNew": 0
    },
    {
        "name": "京港澳高速郑州东服务区充电站（港澳方向）",
        "location": {
            "lon": 113.830952,
            "lat": 34.793537
        },
        "isNew": 1
    },
    {
        "name": "济广高速余江服务区充电站(济南方向)",
        "location": {
            "lon": 116.870938,
            "lat": 28.375199
        },
        "isNew": 0
    },
    {
        "name": "常嘉高速澄湖服务区充电站（嘉兴方向）",
        "location": {
            "lon": 120.847183,
            "lat": 31.198439
        },
        "isNew": 0
    },
    {
        "name": "绕城高速复兴服务区充电站(江津方向)",
        "location": {
            "lon": 106.551591,
            "lat": 29.775707
        },
        "isNew": 0
    },
    {
        "name": "泉南高速泰和东服务区充电站（泉州方向）",
        "location": {
            "lon": 115.012802,
            "lat": 26.807195
        },
        "isNew": 0
    },
    {
        "name": "东永高速方岩服务区充电站（东阳方向）",
        "location": {
            "lon": 120.199196,
            "lat": 28.972834
        },
        "isNew": 0
    },
    {
        "name": "福银高速蓝田服务区公共充电站（银川方向）",
        "location": {
            "lon": 109.467548,
            "lat": 33.957904
        },
        "isNew": 0
    },
    {
        "name": "沪蓉高速万州服务区充电站（上海方向）",
        "location": {
            "lon": 108.388335,
            "lat": 30.883424
        },
        "isNew": 0
    },
    {
        "name": "漳永高速华丰服务区公共充电站（永安方向）",
        "location": {
            "lon": 117.508649,
            "lat": 24.978083
        },
        "isNew": 0
    },
    {
        "name": "京沪高速王庆坨服务区充电站（上海方向）",
        "location": {
            "lon": 116.919098,
            "lat": 39.216494
        },
        "isNew": 0
    },
    {
        "name": "沪蓉高速黄栗墅服务区充电站（成都方向）",
        "location": {
            "lon": 119.031833,
            "lat": 32.059069
        },
        "isNew": 0
    },
    {
        "name": "邯大高速广平服务区充电站（大名方向）",
        "location": {
            "lon": 114.88082,
            "lat": 36.403217
        },
        "isNew": 0
    },
    {
        "name": "长深高速渤海新区服务区充电站（深圳方向）",
        "location": {
            "lon": 117.340158,
            "lat": 38.431747
        },
        "isNew": 0
    },
    {
        "name": "京昆高速澄城服务区公共充电站（西安方向）",
        "location": {
            "lon": 109.973917,
            "lat": 35.02936
        },
        "isNew": 0
    },
    {
        "name": "武鄂高速葛店服务区充电站（鄂州方向）",
        "location": {
            "lon": 114.639318,
            "lat": 30.515125
        },
        "isNew": 0
    },
    {
        "name": "大广高速西演服务区充电站（广州方向）",
        "location": {
            "lon": 115.910578,
            "lat": 38.609181
        },
        "isNew": 0
    },
    {
        "name": "沪蓉高速黄栗墅服务区充电站（上海方向）",
        "location": {
            "lon": 119.029877,
            "lat": 32.056195
        },
        "isNew": 0
    },
    {
        "name": "江宜高速小黄山服务区充电站（宜兴方向）",
        "location": {
            "lon": 119.862968,
            "lat": 32.026353
        },
        "isNew": 0
    },
    {
        "name": "京沪高速泰州宣堡服务区充电站（北京方向）",
        "location": {
            "lon": 119.984188,
            "lat": 32.285805
        },
        "isNew": 0
    },
    {
        "name": "常合高速滆湖服务区充电站（合肥方向）",
        "location": {
            "lon": 119.805328,
            "lat": 31.666226
        },
        "isNew": 0
    },
    {
        "name": "宁洛高速曹庄服务区充电站（南京方向）",
        "location": {
            "lon": 118.586861,
            "lat": 32.290465
        },
        "isNew": 0
    },
    {
        "name": "南京铁心桥北服务区充电站一期",
        "location": {
            "lon": 118.74495,
            "lat": 31.967039
        },
        "isNew": 0
    },
    {
        "name": "常合高速荷叶山服务区快充站（合肥方向）",
        "location": {
            "lon": 118.784645,
            "lat": 31.687625
        },
        "isNew": 0
    },
    {
        "name": "京哈高速山海关服务区充电站（哈尔滨方向）",
        "location": {
            "lon": 119.756866,
            "lat": 40.025946
        },
        "isNew": 1
    },
    {
        "name": "京沪高速六洞服务区充电站（北京方向）",
        "location": {
            "lon": 119.265625,
            "lat": 33.425843
        },
        "isNew": 0
    },
    {
        "name": "宁洛高速曹庄服务区充电站（洛阳方向）",
        "location": {
            "lon": 118.589046,
            "lat": 32.293545
        },
        "isNew": 1
    },
    {
        "name": "沪渝高速高家堰服务区充电站（上海方向）",
        "location": {
            "lon": 111.081587,
            "lat": 30.570255
        },
        "isNew": 0
    },
    {
        "name": "常台高速白洋湖服务区充电站（常熟方向）",
        "location": {
            "lon": 120.678499,
            "lat": 31.206501
        },
        "isNew": 0
    },
    {
        "name": "常合高速茅山服务区充电站(常熟合肥双向)",
        "location": {
            "lon": 119.332674,
            "lat": 31.733106
        },
        "isNew": 0
    },
    {
        "name": "沧榆高速奇村服务区充电站（沧州方向）",
        "location": {
            "lon": 112.585715,
            "lat": 38.573386
        },
        "isNew": 1
    },
    {
        "name": "常台高速天台服务区充电站（常熟方向）",
        "location": {
            "lon": 121.079313,
            "lat": 29.133902
        },
        "isNew": 0
    },
    {
        "name": "沪蓉高速仙人山服务区充电站（成都方向）",
        "location": {
            "lon": 119.393266,
            "lat": 32.044282
        },
        "isNew": 0
    },
    {
        "name": "扬溧高速荣炳服务区充电站（溧阳方向）",
        "location": {
            "lon": 119.396977,
            "lat": 31.843348
        },
        "isNew": 0
    },
    {
        "name": "新扬高速踢球山服务区充电站（新沂方向）",
        "location": {
            "lon": 118.42008,
            "lat": 34.260919
        },
        "isNew": 0
    },
    {
        "name": "沪陕高速正谊服务区充电站（西安方向）",
        "location": {
            "lon": 119.670851,
            "lat": 32.410826
        },
        "isNew": 0
    },
    {
        "name": "京港澳高速蔡甸服务区充电站（港澳方向）",
        "location": {
            "lon": 114.046562,
            "lat": 30.536329
        },
        "isNew": 0
    },
    {
        "name": "邯大高速广平服务区充电站（邯郸方向）",
        "location": {
            "lon": 114.882242,
            "lat": 36.405965
        },
        "isNew": 0
    },
    {
        "name": "常嘉高速澄湖服务区充电站（常熟方向）",
        "location": {
            "lon": 120.84837,
            "lat": 31.195948
        },
        "isNew": 0
    },
    {
        "name": "沪蓉高速淮口服务区充电站（上海方向）",
        "location": {
            "lon": 104.566701,
            "lat": 30.686658
        },
        "isNew": 0
    },
    {
        "name": "宁洛高速吕望服务区充电站（洛阳方向）",
        "location": {
            "lon": 116.474084,
            "lat": 33.181855
        },
        "isNew": 1
    },
    {
        "name": "青银高速潍坊西服务区（青岛方向）充电站",
        "location": {
            "lon": 118.999294,
            "lat": 36.748216
        },
        "isNew": 0
    },
    {
        "name": "福银高速郧西服务区（福州方向）快充站",
        "location": {
            "lon": 110.411771,
            "lat": 32.985736
        },
        "isNew": 0
    },
    {
        "name": "京昆高速顺平服务区充电站（北京方向）",
        "location": {
            "lon": 115.106882,
            "lat": 38.864628
        },
        "isNew": 0
    },
    {
        "name": "京港澳高速朱亭服务区充电站（港澳方向）",
        "location": {
            "lon": 113.032602,
            "lat": 27.401203
        },
        "isNew": 0
    },
    {
        "name": "绕城高速龙兴服务区充电站(复兴方向)",
        "location": {
            "lon": 106.781441,
            "lat": 29.670344
        },
        "isNew": 0
    },
    {
        "name": "东永高速方岩服务区充电站（永康方向）",
        "location": {
            "lon": 120.196404,
            "lat": 28.97465
        },
        "isNew": 0
    },
    {
        "name": "福银高速钟岗服务区充电站（银川方向）",
        "location": {
            "lon": 111.850265,
            "lat": 32.261536
        },
        "isNew": 0
    },
    {
        "name": "京台高速官塘服务区充电站（北京方向）",
        "location": {
            "lon": 117.257032,
            "lat": 32.698969
        },
        "isNew": 0
    },
    {
        "name": "滨保高速小韩庄服务区充电站（滨海方向）",
        "location": {
            "lon": 117.1621,
            "lat": 39.31685
        },
        "isNew": 0
    },
    {
        "name": "京沪高速公路沂南服务区充电站（北京方向）",
        "location": {
            "lon": 118.226393,
            "lat": 35.468907
        },
        "isNew": 0
    },
    {
        "name": "沈海高速白水服务区公共充电站（沈阳方向）",
        "location": {
            "lon": 117.860689,
            "lat": 24.32251
        },
        "isNew": 0
    },
    {
        "name": "廊沧高速木门店服务区充电站（沧州方向）",
        "location": {
            "lon": 116.738977,
            "lat": 38.446432
        },
        "isNew": 0
    },
    {
        "name": "京港澳高速朱亭服务区充电站（北京方向）",
        "location": {
            "lon": 113.03582,
            "lat": 27.400984
        },
        "isNew": 0
    },
    {
        "name": "杭州畅的外事出租车服务区充电站",
        "location": {
            "lon": 120.153568,
            "lat": 30.312604
        },
        "isNew": 0
    },
    {
        "name": "诸永高速神仙居服务区充电站（永嘉方向）",
        "location": {
            "lon": 120.63669,
            "lat": 28.728339
        },
        "isNew": 0
    },
    {
        "name": "常台高速天台服务区充电站（台州方向）",
        "location": {
            "lon": 121.078571,
            "lat": 29.132543
        },
        "isNew": 0
    },
    {
        "name": "常台高速白洋湖服务区充电站（台州方向）",
        "location": {
            "lon": 120.675887,
            "lat": 31.205573
        },
        "isNew": 0
    },
    {
        "name": "成渝环线高速大路服务区充电站（重庆方向）",
        "location": {
            "lon": 106.209896,
            "lat": 29.756117
        },
        "isNew": 0
    },
    {
        "name": "长深高速东庐山服务区充电站（长春方向）",
        "location": {
            "lon": 119.150538,
            "lat": 31.613004
        },
        "isNew": 0
    },
    {
        "name": "沪陕高速仪征服务区充电站（西安方向）",
        "location": {
            "lon": 119.091804,
            "lat": 32.342789
        },
        "isNew": 0
    },
    {
        "name": "沈海高速东孚服务区公共充电站（海口方向）",
        "location": {
            "lon": 117.931792,
            "lat": 24.566638
        },
        "isNew": 0
    },
    {
        "name": "京哈高速宝坻服务区充电站（哈尔滨方向）",
        "location": {
            "lon": 117.33625,
            "lat": 39.761352
        },
        "isNew": 0
    },
    {
        "name": "京哈高速迁安服务区充电站（北京方向）",
        "location": {
            "lon": 118.633536,
            "lat": 39.872932
        },
        "isNew": 0
    },
    {
        "name": "青兰高速肥乡服务区充电站（兰州方向）",
        "location": {
            "lon": 114.768842,
            "lat": 36.613978
        },
        "isNew": 0
    },
    {
        "name": "沿海高速抚宁服务区充电站（秦皇岛方向）",
        "location": {
            "lon": 119.330272,
            "lat": 39.824826
        },
        "isNew": 0
    },
    {
        "name": "青兰高速肥乡服务区充电站（青岛方向）",
        "location": {
            "lon": 114.766052,
            "lat": 36.611692
        },
        "isNew": 0
    },
    {
        "name": "京沪高速东光服务区充电站（北京方向）",
        "location": {
            "lon": 116.588921,
            "lat": 37.914976
        },
        "isNew": 0
    },
    {
        "name": "京藏高速小洪沟服务区银川方向",
        "location": {
            "lon": 105.708383,
            "lat": 37.193256
        },
        "isNew": 0
    },
    {
        "name": "京哈高速滦县服务区充电站（哈尔滨方向）",
        "location": {
            "lon": 118.406155,
            "lat": 39.846565
        },
        "isNew": 0
    },
    {
        "name": "京哈高速迁安服务区充电站（哈尔滨方向）",
        "location": {
            "lon": 118.63322,
            "lat": 39.871577
        },
        "isNew": 0
    },
    {
        "name": "京哈高速榆林服务区充电站（哈尔滨方向）",
        "location": {
            "lon": 123.51551,
            "lat": 41.89603
        },
        "isNew": 0
    },
    {
        "name": "青兰高速沂源服务区充电站（青岛方向）",
        "location": {
            "lon": 118.185519,
            "lat": 36.163182
        },
        "isNew": 0
    },
    {
        "name": "京沪高速高邮服务区充电站（上海方向）",
        "location": {
            "lon": 119.511854,
            "lat": 32.763225
        },
        "isNew": 0
    },
    {
        "name": "京沪高速沭阳服务区充电站（北京方向）",
        "location": {
            "lon": 118.801443,
            "lat": 34.137151
        },
        "isNew": 0
    },
    {
        "name": "京哈高速铁岭服务区充电站（北京方向）",
        "location": {
            "lon": 123.879029,
            "lat": 42.284987
        },
        "isNew": 0
    },
    {
        "name": "台金高速仙居服务区充电站（金华方向）",
        "location": {
            "lon": 120.566226,
            "lat": 28.740422
        },
        "isNew": 0
    },
    {
        "name": "青兰高速莘县服务区（兰州方向）快充站",
        "location": {
            "lon": 115.621151,
            "lat": 36.350147
        },
        "isNew": 1
    },
    {
        "name": "烟海高速乳山服务区（烟台方向）充电站",
        "location": {
            "lon": 121.398314,
            "lat": 37.029747
        },
        "isNew": 0
    },
    {
        "name": "京哈高速丰润服务区充电站（北京方向）",
        "location": {
            "lon": 118.185328,
            "lat": 39.797392
        },
        "isNew": 0
    },
    {
        "name": "陕西省西安市曲江服务区（南区）",
        "location": {
            "lon": 108.9801,
            "lat": 34.1871
        },
        "isNew": 0
    },
    {
        "name": "青兰高速邯郸服务区充电站（青岛方向）",
        "location": {
            "lon": 114.35235,
            "lat": 36.618432
        },
        "isNew": 0
    },
    {
        "name": "京哈高速玉田服务区充电站（哈尔滨方向）",
        "location": {
            "lon": 117.792508,
            "lat": 39.761455
        },
        "isNew": 0
    },
    {
        "name": "京哈高速玉田服务区充电站（北京方向）",
        "location": {
            "lon": 117.793248,
            "lat": 39.763748
        },
        "isNew": 0
    },
    {
        "name": "京哈高速香河服务区充电站（北京方向）",
        "location": {
            "lon": 117.008934,
            "lat": 39.797025
        },
        "isNew": 0
    },
    {
        "name": "京沪高速沧州服务区充电站（上海方向）",
        "location": {
            "lon": 116.732248,
            "lat": 38.240019
        },
        "isNew": 0
    },
    {
        "name": "海滨高速轻纺服务区充电站（黄骅方向）",
        "location": {
            "lon": 117.606334,
            "lat": 38.826174
        },
        "isNew": 0
    },
    {
        "name": "京哈高速香河服务区充电站（哈尔滨方向）",
        "location": {
            "lon": 117.008655,
            "lat": 39.795871
        },
        "isNew": 0
    },
    {
        "name": "京沪高速高邮服务区充电站（北京方向）",
        "location": {
            "lon": 119.513263,
            "lat": 32.763834
        },
        "isNew": 0
    },
    {
        "name": "京沪高速东光服务区充电站（上海方向）",
        "location": {
            "lon": 116.587058,
            "lat": 37.915049
        },
        "isNew": 0
    },
    {
        "name": "青兰高速诸城服务区（兰州方向）充电站",
        "location": {
            "lon": 119.343643,
            "lat": 36.078092
        },
        "isNew": 0
    },
    {
        "name": "京沪高速吴桥服务区充电站（上海方向）",
        "location": {
            "lon": 116.431744,
            "lat": 37.595761
        },
        "isNew": 0
    },
    {
        "name": "台金高速临海服务区充电站（台州方向）",
        "location": {
            "lon": 120.988271,
            "lat": 28.869826
        },
        "isNew": 0
    },
    {
        "name": "甬莞高速林厝服务区公共充电站（福安方向）",
        "location": {
            "lon": 119.557635,
            "lat": 26.851018
        },
        "isNew": 1
    },
    {
        "name": "杭瑞高速景德镇服务区充电站（杭州方向）",
        "location": {
            "lon": 117.354678,
            "lat": 29.306365
        },
        "isNew": 0
    },
    {
        "name": "青银高速公路天桥服务区（青岛方向）充电站",
        "location": {
            "lon": 117.056933,
            "lat": 36.842983
        },
        "isNew": 0
    },
    {
        "name": "京昆高速攀枝花服务区（昆明方向）充电站",
        "location": {
            "lon": 101.869941,
            "lat": 26.576219
        },
        "isNew": 0
    },
    {
        "name": "福银高速七里岗服务区充电站（银川方向）",
        "location": {
            "lon": 115.955713,
            "lat": 28.820598
        },
        "isNew": 0
    },
    {
        "name": "京港澳高速窦店服务区公共充电站(北京方向)",
        "location": {
            "lon": 116.081711,
            "lat": 39.629647
        },
        "isNew": 0
    },
    {
        "name": "邢汾高速清家沟服务区充电站（邢台方向）",
        "location": {
            "lon": 113.884529,
            "lat": 37.146199
        },
        "isNew": 0
    },
    {
        "name": "潍日高速寿光东服务区（潍坊港方向）充电站",
        "location": {
            "lon": 119.005572,
            "lat": 36.884503
        },
        "isNew": 0
    },
    {
        "name": "荣乌高速王庄堡服务区充电站（乌海方向）",
        "location": {
            "lon": 113.965387,
            "lat": 39.430468
        },
        "isNew": 0
    },
    {
        "name": "长深高速刘杖子服务区充电站（深圳方向）",
        "location": {
            "lon": 117.731525,
            "lat": 40.722344
        },
        "isNew": 0
    },
    {
        "name": "新元高速西兆通服务区充电站（港澳方向）",
        "location": {
            "lon": 114.588497,
            "lat": 38.070291
        },
        "isNew": 0
    },
    {
        "name": "京台高速刘集服务区充电站（台北方向）",
        "location": {
            "lon": 117.046209,
            "lat": 34.328551
        },
        "isNew": 0
    },
    {
        "name": "沪蓉高速巴东服务区充电站（四川方向）",
        "location": {
            "lon": 110.429035,
            "lat": 31.171441
        },
        "isNew": 0
    },
    {
        "name": "呼北高速远安服务区（呼和浩特方向）公共充电站",
        "location": {
            "lon": 111.644194,
            "lat": 30.922915
        },
        "isNew": 0
    },
    {
        "name": "张涿高速野三坡服务区充电站（涿州方向）",
        "location": {
            "lon": 115.417381,
            "lat": 39.737904
        },
        "isNew": 0
    },
    {
        "name": "邢汾高速龙泉寺服务区充电站（汾阳方向）",
        "location": {
            "lon": 114.109728,
            "lat": 37.096327
        },
        "isNew": 0
    },
    {
        "name": "张涿高速涞水服务区充电站（张家口方向）",
        "location": {
            "lon": 115.633813,
            "lat": 39.486977
        },
        "isNew": 0
    },
    {
        "name": "青银高速石家庄南服务区充电站（青岛方向）",
        "location": {
            "lon": 114.426962,
            "lat": 37.944466
        },
        "isNew": 0
    },
    {
        "name": "京台高速仙霞服务区充电站（台北方向）",
        "location": {
            "lon": 118.534361,
            "lat": 28.477627
        },
        "isNew": 0
    },
    {
        "name": "翻坝高速点军服务区（秭归方向）公共充电站",
        "location": {
            "lon": 111.22212,
            "lat": 30.657872
        },
        "isNew": 0
    },
    {
        "name": "泉南高速温郊服务区公共充电站（泉州方向）",
        "location": {
            "lon": 116.989994,
            "lat": 26.188978
        },
        "isNew": 0
    },
    {
        "name": "福银高速朱洋服务区公共充电站（银川方向）",
        "location": {
            "lon": 117.128625,
            "lat": 27.20483
        },
        "isNew": 0
    },
    {
        "name": "长深高速靳杖子服务区充电站（长春方向）",
        "location": {
            "lon": 117.94625,
            "lat": 40.401699
        },
        "isNew": 0
    },
    {
        "name": "沪蓉高速公路梅山服务区充电站（上海方向）",
        "location": {
            "lon": 116.014073,
            "lat": 31.754086
        },
        "isNew": 0
    },
    {
        "name": "南石高速榕桥服务区公共充电站（南安方向）",
        "location": {
            "lon": 118.403884,
            "lat": 24.875796
        },
        "isNew": 0
    },
    {
        "name": "莆永高速岵山服务区公共充电站（永定方向）",
        "location": {
            "lon": 118.25987,
            "lat": 25.290069
        },
        "isNew": 0
    },
    {
        "name": "福银高速官洋服务区公共充电站（福州方向）",
        "location": {
            "lon": 118.608919,
            "lat": 26.256131
        },
        "isNew": 0
    },
    {
        "name": "承秦高速青龙东服务区充电站（承德方向）",
        "location": {
            "lon": 119.156067,
            "lat": 40.253805
        },
        "isNew": 0
    },
    {
        "name": "福银高速塔前服务区公共充电站（银川方向）",
        "location": {
            "lon": 118.147571,
            "lat": 26.449644
        },
        "isNew": 0
    },
    {
        "name": "荣乌高速康家庄服务区充电站（荣成方向）",
        "location": {
            "lon": 115.233727,
            "lat": 39.073854
        },
        "isNew": 0
    },
    {
        "name": "长深高速八一服务区公共充电站（长春方向）",
        "location": {
            "lon": 117.145811,
            "lat": 25.766245
        },
        "isNew": 0
    },
    {
        "name": "福银高速塔前服务区公共充电站（福州方向）",
        "location": {
            "lon": 118.144245,
            "lat": 26.449159
        },
        "isNew": 0
    },
    {
        "name": "银百高速金佛山东服务区充电站（银川方向）",
        "location": {
            "lon": 107.31111,
            "lat": 29.02681
        },
        "isNew": 0
    },
    {
        "name": "成德南高速槐树服务区充电站（巴中方向）",
        "location": {
            "lon": 105.810535,
            "lat": 31.17274
        },
        "isNew": 0
    },
    {
        "name": "启扬高速吕四服务区充电站（启东方向）",
        "location": {
            "lon": 121.529285,
            "lat": 32.011019
        },
        "isNew": 1
    },
    {
        "name": "成渝环线高速潼南服务区充电站（重庆方向）",
        "location": {
            "lon": 105.762688,
            "lat": 30.196796
        },
        "isNew": 0
    },
    {
        "name": "大广高速安子岭服务区充电站（广州方向）",
        "location": {
            "lon": 117.476369,
            "lat": 40.848817
        },
        "isNew": 0
    },
    {
        "name": "大广高速银湾桥服务区充电站（大庆方向）",
        "location": {
            "lon": 114.85755,
            "lat": 27.239764
        },
        "isNew": 0
    },
    {
        "name": "莆永高速槐植服务区充电站（莆田方向）",
        "location": {
            "lon": 117.873297,
            "lat": 25.283383
        },
        "isNew": 0
    },
    {
        "name": "连霍高速夏邑服务区（连云港方向）快充站",
        "location": {
            "lon": 116.192117,
            "lat": 34.187344
        },
        "isNew": 1
    },
    {
        "name": "京台高速青山泉服务区充电站（台北方向）",
        "location": {
            "lon": 117.333062,
            "lat": 34.397986
        },
        "isNew": 0
    },
    {
        "name": "黄浮高速齐云山服务区充电站（黄山方向）",
        "location": {
            "lon": 118.131797,
            "lat": 29.750449
        },
        "isNew": 0
    },
    {
        "name": "威青高速公路海阳服务区（青岛方向）充电站",
        "location": {
            "lon": 120.958032,
            "lat": 36.669524
        },
        "isNew": 0
    },
    {
        "name": "启扬高速郭村服务区充电站（启东方向）",
        "location": {
            "lon": 119.786411,
            "lat": 32.541718
        },
        "isNew": 0
    },
    {
        "name": "福银高速朱洋服务区公共充电站（福州方向）",
        "location": {
            "lon": 117.1267,
            "lat": 27.204271
        },
        "isNew": 0
    },
    {
        "name": "长深高速垄东服务区公共充电站（长春方向）",
        "location": {
            "lon": 117.728729,
            "lat": 26.355658
        },
        "isNew": 0
    },
    {
        "name": "京台高速别古庄服务区充电站（北京方向）",
        "location": {
            "lon": 116.6871,
            "lat": 39.30365
        },
        "isNew": 0
    },
    {
        "name": "厦蓉高速适中服务区公共充电站（厦门方向）",
        "location": {
            "lon": 117.115454,
            "lat": 24.953971
        },
        "isNew": 1
    },
    {
        "name": "沈海高速溪南服务区公共充电站（海口方向）",
        "location": {
            "lon": 117.160574,
            "lat": 23.691415
        },
        "isNew": 0
    },
    {
        "name": "成绵高速复线安县服务区充电站（成都方向）",
        "location": {
            "lon": 104.510645,
            "lat": 31.410716
        },
        "isNew": 0
    },
    {
        "name": "济广高速雷埠服务区充电站（济南方向）",
        "location": {
            "lon": 116.56227,
            "lat": 30.405102
        },
        "isNew": 0
    },
    {
        "name": "青银高速公路高唐服务区充电站（银川方向）",
        "location": {
            "lon": 116.297506,
            "lat": 36.914826
        },
        "isNew": 0
    },
    {
        "name": "沪渝高速枝江西服务区充电站（上海方向）",
        "location": {
            "lon": 111.527398,
            "lat": 30.550128
        },
        "isNew": 0
    },
    {
        "name": "京台高速建州服务区公共充电站（台北方向）",
        "location": {
            "lon": 118.414613,
            "lat": 26.934076
        },
        "isNew": 0
    },
    {
        "name": "津蓟高速蓟州服务区充电站（东丽方向）",
        "location": {
            "lon": 117.359062,
            "lat": 39.97742
        },
        "isNew": 0
    },
    {
        "name": "青银高速公路天桥服务区（银川方向）充电站",
        "location": {
            "lon": 117.058561,
            "lat": 36.844843
        },
        "isNew": 0
    },
    {
        "name": "沈海高速复线罗东服务区充电站（海口方向）",
        "location": {
            "lon": 118.491203,
            "lat": 25.172289
        },
        "isNew": 0
    },
    {
        "name": "京台高速周潭服务区充电站（台北方向）",
        "location": {
            "lon": 117.553444,
            "lat": 30.88176
        },
        "isNew": 0
    },
    {
        "name": "张承高速凤山服务区充电站（张家口方向）",
        "location": {
            "lon": 117.182794,
            "lat": 41.263613
        },
        "isNew": 0
    },
    {
        "name": "沪渝高速公路湖州服务区充电站（重庆方向）",
        "location": {
            "lon": 120.222728,
            "lat": 30.892824
        },
        "isNew": 0
    },
    {
        "name": "淮徐高速成子湖服务区充电站（徐州方向）",
        "location": {
            "lon": 118.732587,
            "lat": 33.629569
        },
        "isNew": 0
    },
    {
        "name": "海口中国石油龙桥服务区加油站（东侧）",
        "location": {
            "lon": 110.361941,
            "lat": 19.922679
        },
        "isNew": 0
    },
    {
        "name": "甬台温复线高速象山服务区充电站（温州方向）",
        "location": {
            "lon": 121.825215,
            "lat": 29.511571
        },
        "isNew": 0
    },
    {
        "name": "周六高速徐集服务区充电站（周集方向）",
        "location": {
            "lon": 116.359891,
            "lat": 31.816278
        },
        "isNew": 0
    },
    {
        "name": "宁东高速透堡服务区公共充电站（福州方向）",
        "location": {
            "lon": 119.640452,
            "lat": 26.356366
        },
        "isNew": 0
    },
    {
        "name": "京台高速禹会服务区充电站（台北方向）",
        "location": {
            "lon": 117.257899,
            "lat": 32.9012
        },
        "isNew": 0
    },
    {
        "name": "京沪高速公路乐陵西服务区（北京方向）充电站",
        "location": {
            "lon": 117.110434,
            "lat": 37.735476
        },
        "isNew": 0
    },
    {
        "name": "沪渝高速界子墩服务区充电站（重庆方向）",
        "location": {
            "lon": 116.034741,
            "lat": 30.10889
        },
        "isNew": 0
    },
    {
        "name": "塘承高速蓟州服务区充电站（承德方向）",
        "location": {
            "lon": 117.483512,
            "lat": 39.885943
        },
        "isNew": 0
    },
    {
        "name": "江北高速监利黄歇口服务区充电站（监利方向）",
        "location": {
            "lon": 112.817624,
            "lat": 29.974461
        },
        "isNew": 1
    },
    {
        "name": "威青高速公路海阳服务区（威海方向）充电站",
        "location": {
            "lon": 120.954004,
            "lat": 36.666693
        },
        "isNew": 0
    },
    {
        "name": "连霍高速商丘服务区（连云港方向）快充站",
        "location": {
            "lon": 115.629832,
            "lat": 34.340896
        },
        "isNew": 1
    },
    {
        "name": "京台高速丰乐服务区公共充电站（台北方向）",
        "location": {
            "lon": 118.175429,
            "lat": 27.183422
        },
        "isNew": 0
    },
    {
        "name": "沪蓉高速芳茂山服务区充电站（成都方向）",
        "location": {
            "lon": 120.083562,
            "lat": 31.78495
        },
        "isNew": 0
    },
    {
        "name": "长深高速洪泽湖服务区充电站（长春方向）",
        "location": {
            "lon": 118.893191,
            "lat": 33.266636
        },
        "isNew": 0
    },
    {
        "name": "屯昌服务区-停车场充电站 (屯昌到海口方向)",
        "location": {
            "lon": 110.094994,
            "lat": 19.437539
        },
        "isNew": 0
    },
    {
        "name": "京台高速关东服务区公共充电站（台北方向）",
        "location": {
            "lon": 119.176399,
            "lat": 26.177098
        },
        "isNew": 0
    },
    {
        "name": "沪宜高速宜兴高塍服务区（宜兴方向）充电站",
        "location": {
            "lon": 119.81912,
            "lat": 31.42357
        },
        "isNew": 0
    },
    {
        "name": "长深高速六合服务区快充站（长春方向）",
        "location": {
            "lon": 118.736995,
            "lat": 32.476663
        },
        "isNew": 0
    },
    {
        "name": "福银高速安陆服务区公共充电站（福州方向）",
        "location": {
            "lon": 113.545097,
            "lat": 31.36406
        },
        "isNew": 0
    },
    {
        "name": "绕城高速珞璜服务区充电站(鱼嘴方向)",
        "location": {
            "lon": 106.455894,
            "lat": 29.258282
        },
        "isNew": 0
    },
    {
        "name": "沪昆高速龙虎山服务区充电站（上海方向）",
        "location": {
            "lon": 116.957426,
            "lat": 28.295443
        },
        "isNew": 0
    },
    {
        "name": "滁新高速公路阜南服务区充电站（滁州方向）",
        "location": {
            "lon": 115.647818,
            "lat": 32.788964
        },
        "isNew": 0
    },
    {
        "name": "渝昆高速公路荣昌服务区充电站（昆明方向）",
        "location": {
            "lon": 105.643779,
            "lat": 29.414318
        },
        "isNew": 0
    },
    {
        "name": "大广高速土沟服务区公共充电站(广州方向)",
        "location": {
            "lon": 116.482522,
            "lat": 40.127916
        },
        "isNew": 0
    },
    {
        "name": "长深高速新泉服务区公共充电站（长春方向）",
        "location": {
            "lon": 116.635762,
            "lat": 25.383251
        },
        "isNew": 0
    },
    {
        "name": "古武高速梁野山服务区快充站（武平方向）",
        "location": {
            "lon": 116.050647,
            "lat": 25.050758
        },
        "isNew": 0
    },
    {
        "name": "泉南高速温郊服务区公共充电站（南宁方向）",
        "location": {
            "lon": 116.986232,
            "lat": 26.189755
        },
        "isNew": 0
    },
    {
        "name": "沪渝高速公路长兴服务区充电站（上海方向）",
        "location": {
            "lon": 119.731135,
            "lat": 30.92681
        },
        "isNew": 0
    },
    {
        "name": "京台高速官塘服务区充电站（台北方向）",
        "location": {
            "lon": 117.258117,
            "lat": 32.696972
        },
        "isNew": 0
    },
    {
        "name": "京沪高速马驹桥服务区公共充电站(北京方向)",
        "location": {
            "lon": 116.563305,
            "lat": 39.76089
        },
        "isNew": 0
    },
    {
        "name": "常台高速嘉绍大桥服务区充电站（台州方向）",
        "location": {
            "lon": 120.791345,
            "lat": 30.353433
        },
        "isNew": 0
    },
    {
        "name": "泉南高速西洋服务区公共充电站（南宁方向）",
        "location": {
            "lon": 117.402236,
            "lat": 25.859456
        },
        "isNew": 0
    },
    {
        "name": "沈海高速赤港服务区公共充电站（沈阳方向）",
        "location": {
            "lon": 119.184949,
            "lat": 25.463616
        },
        "isNew": 0
    },
    {
        "name": "南惠高速上田服务区公共充电站（南安方向）",
        "location": {
            "lon": 118.720642,
            "lat": 24.970277
        },
        "isNew": 0
    },
    {
        "name": "沪宜高速阳澄北湖服务区充电站（宜兴方向）",
        "location": {
            "lon": 120.796811,
            "lat": 31.501339
        },
        "isNew": 0
    },
    {
        "name": "京台高速沙溪服务区充电站（台北方向）",
        "location": {
            "lon": 117.251281,
            "lat": 31.149198
        },
        "isNew": 0
    },
    {
        "name": "京台高速公路泰安服务区（北京方向）充电站",
        "location": {
            "lon": 116.999472,
            "lat": 36.204129
        },
        "isNew": 0
    },
    {
        "name": "沪蓉高速芳茂山服务区充电站（上海方向）",
        "location": {
            "lon": 120.082275,
            "lat": 31.782752
        },
        "isNew": 0
    },
    {
        "name": "杭新景高速常山服务区充电站（景德镇方向）",
        "location": {
            "lon": 118.739204,
            "lat": 29.172838
        },
        "isNew": 0
    },
    {
        "name": "沈海高速洛阳江服务区公共充电站（沈阳方向）",
        "location": {
            "lon": 118.671409,
            "lat": 24.979484
        },
        "isNew": 1
    },
    {
        "name": "天潜高速滁州服务区（马鞍山方向）充电站",
        "location": {
            "lon": 118.378872,
            "lat": 32.203163
        },
        "isNew": 0
    },
    {
        "name": "长深高速贡川服务区公共充电站（深圳方向）",
        "location": {
            "lon": 117.460023,
            "lat": 26.116832
        },
        "isNew": 0
    },
    {
        "name": "莆永高速善乡服务区公共充电站（永定方向）",
        "location": {
            "lon": 119.037989,
            "lat": 25.361371
        },
        "isNew": 0
    },
    {
        "name": "大广高速仙女湖服务区充电站（广州方向）",
        "location": {
            "lon": 114.841842,
            "lat": 27.729847
        },
        "isNew": 0
    },
    {
        "name": "蚌合高速龙门寺服务区充电站（合肥方向）",
        "location": {
            "lon": 117.103809,
            "lat": 32.140127
        },
        "isNew": 0
    },
    {
        "name": "沈海高速驿坂服务区公共充电站（海口方向）",
        "location": {
            "lon": 118.826725,
            "lat": 25.136534
        },
        "isNew": 0
    },
    {
        "name": "沪宜高速阳澄北湖服务区充电站（上海方向）",
        "location": {
            "lon": 120.794551,
            "lat": 31.500072
        },
        "isNew": 0
    },
    {
        "name": "京藏高速百葛服务区公共充电站(北京方向)",
        "location": {
            "lon": 116.237736,
            "lat": 40.181483
        },
        "isNew": 0
    },
    {
        "name": "长深高速湛卢服务区公共充电站（长春方向）",
        "location": {
            "lon": 118.695993,
            "lat": 27.473595
        },
        "isNew": 0
    },
    {
        "name": "巴达高速达州西服务区充电站（达州方向）",
        "location": {
            "lon": 107.486885,
            "lat": 31.365782
        },
        "isNew": 0
    },
    {
        "name": "滁新高速焦岗湖服务区充电站（新蔡方向）",
        "location": {
            "lon": 116.662626,
            "lat": 32.622467
        },
        "isNew": 0
    },
    {
        "name": "京平高速北务服务区公共充电站(平谷方向)",
        "location": {
            "lon": 116.834784,
            "lat": 40.052605
        },
        "isNew": 0
    },
    {
        "name": "绕城高速复兴服务区充电站(鱼嘴方向)",
        "location": {
            "lon": 106.547913,
            "lat": 29.774989
        },
        "isNew": 0
    },
    {
        "name": "长深高速公路滨州服务区充电站（长春方向）",
        "location": {
            "lon": 117.911094,
            "lat": 37.52178
        },
        "isNew": 0
    },
    {
        "name": "沈海高速天福服务区公共充电站（海口方向）",
        "location": {
            "lon": 117.744201,
            "lat": 24.115264
        },
        "isNew": 0
    },
    {
        "name": "成自泸高速汪洋服务区充电站（泸州方向）",
        "location": {
            "lon": 104.354519,
            "lat": 29.789602
        },
        "isNew": 0
    },
    {
        "name": "京港澳高速东西湖服务区充电站（港澳方向）",
        "location": {
            "lon": 114.040012,
            "lat": 30.702209
        },
        "isNew": 0
    },
    {
        "name": "屯昌县枫木服务区充电站(屯昌到海口方向)",
        "location": {
            "lon": 109.997349,
            "lat": 19.20164
        },
        "isNew": 0
    },
    {
        "name": "淮徐高速成子湖服务区充电站（淮安方向）",
        "location": {
            "lon": 118.729878,
            "lat": 33.628908
        },
        "isNew": 0
    },
    {
        "name": "长深高速新泉服务区公共充电站（深圳方向）",
        "location": {
            "lon": 116.636192,
            "lat": 25.384453
        },
        "isNew": 0
    },
    {
        "name": "新扬高速重岗山服务区充电站（新沂方向）",
        "location": {
            "lon": 118.183957,
            "lat": 33.547364
        },
        "isNew": 0
    },
    {
        "name": "沈海高速赤港服务区公共充电站（海口方向）",
        "location": {
            "lon": 119.183194,
            "lat": 25.464849
        },
        "isNew": 0
    },
    {
        "name": "沪陕高速老山服务区充电站（西安方向）",
        "location": {
            "lon": 118.566945,
            "lat": 32.113355
        },
        "isNew": 0
    },
    {
        "name": "荣乌高速浑源服务区充电站（乌海方向）",
        "location": {
            "lon": 113.64791,
            "lat": 39.650005
        },
        "isNew": 0
    },
    {
        "name": "荣乌高速徐水服务区充电站（乌海方向）",
        "location": {
            "lon": 115.573202,
            "lat": 39.072666
        },
        "isNew": 0
    },
    {
        "name": "雅康高速泸定服务区充电站（雅安方向）",
        "location": {
            "lon": 102.237624,
            "lat": 29.951146
        },
        "isNew": 0
    },
    {
        "name": "大广高速雄县服务区充电站（大庆方向）",
        "location": {
            "lon": 116.245232,
            "lat": 39.012004
        },
        "isNew": 0
    },
    {
        "name": "密涿高速大厂服务区充电站（密云方向）",
        "location": {
            "lon": 117.008127,
            "lat": 39.868392
        },
        "isNew": 0
    },
    {
        "name": "承秦高速宽城服务区充电站（秦皇岛方向）",
        "location": {
            "lon": 118.579786,
            "lat": 40.604773
        },
        "isNew": 0
    },
    {
        "name": "京港澳高速长沙服务区充电站（港澳方向）",
        "location": {
            "lon": 113.072371,
            "lat": 28.264946
        },
        "isNew": 0
    },
    {
        "name": "盐靖高速新兴服务区快充站（靖江方向）",
        "location": {
            "lon": 120.077159,
            "lat": 33.408665
        },
        "isNew": 0
    },
    {
        "name": "京港澳高速磁县服务区充电站（港澳方向）",
        "location": {
            "lon": 114.42671,
            "lat": 36.385716
        },
        "isNew": 0
    },
    {
        "name": "京港澳高速灵山服务区快充站（港澳方向）",
        "location": {
            "lon": 114.28818,
            "lat": 31.931819
        },
        "isNew": 0
    },
    {
        "name": "青银高速清河服务区充电站（银川方向）",
        "location": {
            "lon": 115.765058,
            "lat": 37.08231
        },
        "isNew": 0
    },
    {
        "name": "廊涿高速廊坊服务区充电站（涿州方向）",
        "location": {
            "lon": 116.480242,
            "lat": 39.478524
        },
        "isNew": 0
    },
    {
        "name": "京港澳高速赵县服务区充电站（港澳方向）",
        "location": {
            "lon": 114.667652,
            "lat": 37.732576
        },
        "isNew": 0
    },
    {
        "name": "宣大高速宣化服务区充电站（宣化方向）",
        "location": {
            "lon": 115.029456,
            "lat": 40.523867
        },
        "isNew": 0
    },
    {
        "name": "荣乌高速灵丘服务区充电站（乌海方向）",
        "location": {
            "lon": 114.337077,
            "lat": 39.446897
        },
        "isNew": 0
    },
    {
        "name": "青银高速宁晋服务区充电站（青岛方向）",
        "location": {
            "lon": 114.942988,
            "lat": 37.665826
        },
        "isNew": 0
    },
    {
        "name": "京港澳高速信阳服务区快充站（港澳方向）",
        "location": {
            "lon": 114.158237,
            "lat": 32.256584
        },
        "isNew": 0
    },
    {
        "name": "日兰高速曹州服务区（兰考方向）充电站",
        "location": {
            "lon": 115.29091,
            "lat": 35.08097
        },
        "isNew": 0
    },
    {
        "name": "天黎高速阳高服务区充电站（天镇方向）",
        "location": {
            "lon": 113.858458,
            "lat": 40.414186
        },
        "isNew": 0
    },
    {
        "name": "谷竹高速竹溪服务区（竹溪方向）快充站",
        "location": {
            "lon": 109.574781,
            "lat": 32.323165
        },
        "isNew": 0
    },
    {
        "name": "随岳高速京山服务区快充站（随州方向）",
        "location": {
            "lon": 113.241053,
            "lat": 31.220595
        },
        "isNew": 0
    },
    {
        "name": "张南高速铁门服务区充电站（南充方向）",
        "location": {
            "lon": 107.737287,
            "lat": 30.524996
        },
        "isNew": 0
    },
    {
        "name": "大广高速漳河服务区充电站（大庆方向）",
        "location": {
            "lon": 115.094932,
            "lat": 36.412575
        },
        "isNew": 0
    },